{
  "locations": [
    {
      "city": "100 Mile House",
      "address": "2-95a Cariboo Hwy 97",
      "coordinates": [-121.29505358771397, 51.64774849711993],
      "hours_details": "BC Liquor Store #221, 100 Mile House Picket line on site",
      "is_picket_line": true,
      "location_type": "BC Liquor Store"
    },
    {
      "city": "Abbotsford",
      "address": "117-2070 Sumas Way",
      "coordinates": [-122.26877547394928, 49.03979191116619],
      "hours_details": "BC Liquor Store #189 Abbotsford Village 9:30am to 9pm",
      "is_picket_line": true,
      "location_type": "BC Liquor Store"
    },
    {
      "city": "Abbotsford",
      "address": "40-32500 South Fraser Way",
      "coordinates": [-122.32601868159475, 49.05060920315223],
      "hours_details": "BC Liquor Store #149 Abbotsford 9:30am to 9pm",
      "is_picket_line": true,
      "location_type": "BC Liquor Store"
    },
    {
      "city": "Abbotsford",
      "address": "Unit J165 3122 Mount Lehman Rd",
      "coordinates": [-122.37758000996979, 49.05826043580834],
      "hours_details": "BC Cannabis Store, Highstreet picketing redirected to any LDB line in Abbotsford",
      "is_picket_line": false,
      "location_type": "BC Cannabis Store"
    },
    {
      "city": "Agassiz",
      "address": "7250 Pioneer Ave",
      "coordinates": [-121.75958427312219, 49.23867393585482],
      "hours_details": "BC Liquor Store #64 Agassiz on strike but picketing at 46040 Yale Rd, Chilliwack",
      "is_picket_line": false,
      "location_type": "BC Liquor Store"
    },
    {
      "city": "Armstrong",
      "address": "3495 Smith Dr",
      "coordinates": [-119.18450792791344, 50.448751912012895],
      "hours_details": "BC Liquor Store #215, Armstrong Picket line on site",
      "is_picket_line": true,
      "location_type": "BC Liquor Store"
    },
    {
      "city": "Brentwood Bay",
      "address": "7103 Saanich Rd W",
      "coordinates": [-123.44352295627027, 48.575248850739825],
      "hours_details": "BC Liquor Store #29, Brentwood Crossing picketing redirected to Sidney Liquor Store - 2335 Beacon Ave",
      "is_picket_line": false,
      "location_type": "BC Liquor Store"
    },
    {
      "city": "Burnaby",
      "address": "#2‑4615 Lougheed Highway",
      "coordinates": [-122.99976062064485, 49.26666163183591],
      "hours_details": "BC Cannabis Store, Brentwood Picket line on site",
      "is_picket_line": true,
      "location_type": "BC Cannabis Store"
    },
    {
      "city": "Burnaby",
      "address": "3383 Gilmore",
      "coordinates": [-123.01135187285132, 49.25420862391652],
      "hours_details": "Monday to Friday, 8am-4pm",
      "is_picket_line": true,
      "location_type": "Office"
    },
    {
      "city": "Burnaby",
      "address": "4370 Dominion Street",
      "coordinates": [-123.006666961928, 49.2560317228061],
      "hours_details": "Picketing redirected to nearest Picket line",
      "is_picket_line": false,
      "location_type": "Office"
    },
    {
      "city": "Burnaby",
      "address": "4429 Kingsway #16",
      "coordinates": [-123.00558621862139, 49.231569357125366],
      "hours_details": "BC Liquor Store #203 South Burnaby on strike but picketing at 7155 Kingsway, Burnaby",
      "is_picket_line": false,
      "location_type": "BC Liquor Store"
    },
    {
      "city": "Burnaby",
      "address": "4450 E Hastings Street",
      "coordinates": [-123.00345378936227, 49.280717529927045],
      "hours_details": "BC Liquor Store #217, North Burnaby Picketing redirected to Broadway 3150 E Broadway, Vancouver",
      "is_picket_line": false,
      "location_type": "BC Liquor Store"
    },
    {
      "city": "Burnaby",
      "address": "4455 Skyline Dr",
      "coordinates": [-123.00433619014504, 49.26577056472892],
      "hours_details": "BC Liquor Store #224 SOLO Monday to Saturday 9am-9pm, Sunday 11am-6pm",
      "is_picket_line": true,
      "location_type": "BC Liquor Store"
    },
    {
      "city": "Burnaby",
      "address": "4940 Canada Way",
      "coordinates": [-122.973173946008, 49.2454273208219],
      "hours_details": "on strike but picketing at 3383 Gilmore",
      "is_picket_line": false,
      "location_type": "Office"
    },
    {
      "city": "Burnaby",
      "address": "6512 Hastings Street",
      "coordinates": [-122.96903853501544, 49.27963412933275],
      "hours_details": "BC Liquor Store #137, Kensington Picketing redirected to Broadway 3150 E Broadway, Vancouver",
      "is_picket_line": false,
      "location_type": "BC Liquor Store"
    },
    {
      "city": "Burnaby",
      "address": "7300 Market Crossing",
      "coordinates": [-122.98276174282053, 49.20108350472922],
      "hours_details": "BC Cannabis Store, Market Crossing picketing redirected to Highgate 7155 Kingsway #235, Burnaby",
      "is_picket_line": false,
      "location_type": "BC Cannabis Store"
    },
    {
      "city": "Burnaby",
      "address": "7509 Byrne Rd",
      "coordinates": [-122.9795906953238, 49.19842558820753],
      "hours_details": "BC Liquor Store #193 Market Crossing on strike but picketing at 7155 Kingsway, Burnaby",
      "is_picket_line": false,
      "location_type": "BC Liquor Store"
    },
    {
      "city": "Burnaby",
      "address": "8025 Enterprise St",
      "coordinates": [-122.93185324530461, 49.25683482765482],
      "hours_details": "on strike but picketing at nearest picket line",
      "is_picket_line": false,
      "location_type": "Warehouse"
    },
    {
      "city": "Burnaby",
      "address": "8992 University High Street",
      "coordinates": [-122.91096503563617, 49.278040469512874],
      "hours_details": "BC Liquor Store #239, SFU Picketing redirected to Broadway 3150 E Broadway, Vancouver",
      "is_picket_line": false,
      "location_type": "BC Liquor Store"
    },
    {
      "city": "Burnaby",
      "address": "Unit 1‑4429 Kingsway Ave",
      "coordinates": [-123.00628451525644, 49.23100132543889],
      "hours_details": "BC Cannabis Store, Old Orchard Picketing redirected to Highgate 7155 Kingsway #235, Burnaby,",
      "is_picket_line": false,
      "location_type": "BC Cannabis Store"
    },
    {
      "city": "Burnaby",
      "address": "103-3433 North Rd",
      "coordinates": [-122.89339913787293, 49.25292851814367],
      "hours_details": "BC Liquor Store #77, Northgate Picket line on site",
      "is_picket_line": true,
      "location_type": "BC Liquor Store"
    },
    {
      "city": "Burnaby",
      "address": "235-7155 Kingsway",
      "coordinates": [-122.95580531161164, 49.21915131072336],
      "hours_details": "BC Liquor Store #220, Highgate Village Picket line on site",
      "is_picket_line": true,
      "location_type": "BC Liquor Store"
    },
    {
      "city": "Campbell River",
      "address": "130 – 1416 Island Hwy",
      "coordinates": [-125.2468186730194, 50.03551215747232],
      "hours_details": "BC Cannabis Store, Discovery Harbour Picketing redirected to 270 1400 Dogwood St, Campbell River",
      "is_picket_line": false,
      "location_type": "BC Cannabis Store"
    },
    {
      "city": "Campbell River",
      "address": "2116 S Island Hwy",
      "coordinates": [-125.21780807263158, 49.97156947238686],
      "hours_details": "BC Liquor Store #185 Willow Point on strike but picketing at 1400 Dogwood St, Campbell River",
      "is_picket_line": false,
      "location_type": "BC Liquor Store"
    },
    {
      "city": "Campbell River",
      "address": "270-1400 Dogwood St",
      "coordinates": [-125.25110770852733, 50.02918462719477],
      "hours_details": "BC Liquor Store #5 Campbell River 9:30am to 9pm",
      "is_picket_line": true,
      "location_type": "BC Liquor Store"
    },
    {
      "city": "Castlegar",
      "address": "G-635 Columbia Ave",
      "coordinates": [-117.6649303245909, 49.32135750604707],
      "hours_details": "BC Liquor Store #78, Castlegar Picket line on site",
      "is_picket_line": true,
      "location_type": "BC Liquor Store"
    },
    {
      "city": "Chemainus",
      "address": "2592 Legion Street",
      "coordinates": [-123.71851494946932, 48.92225917347713],
      "hours_details": "BC Liquor Store #203, Chemainus Picketing redirected to Duncan Liquor Store - 1, 180 Central Blvd, Duncan",
      "is_picket_line": true,
      "location_type": "BC Liquor Store"
    },
    {
      "city": "Chilliwack",
      "address": "45585 Luckakuck Way",
      "coordinates": [-121.96437299424498, 49.14319244673406],
      "hours_details": "BC Liquor Store #170 Cottonwood Centre/Sardis on strike but picketing at 46040 Yale Rd, Chilliwack",
      "is_picket_line": false,
      "location_type": "BC Liquor Store"
    },
    {
      "city": "Chilliwack",
      "address": "46040 Yale Rd",
      "coordinates": [-121.95366723968563, 49.17006621195639],
      "hours_details": "BC Liquor Store #7 Chilliwack 9:30am to 9pm",
      "is_picket_line": true,
      "location_type": "BC Liquor Store"
    },
    {
      "city": "Chilliwack",
      "address": "46360 Airport Road",
      "coordinates": [-121.94118311775836, 49.1558177148018],
      "hours_details": "Picket line on site",
      "is_picket_line": true,
      "location_type": "Front Desk BC"
    },
    {
      "city": "Chilliwack",
      "address": "Unit B – 45460 Luckakuck Way",
      "coordinates": [-121.96562743344411, 49.14045852451599],
      "hours_details": "BC Cannabis Store, Chilliwack Picketing redirected to BC Liquor- 46040 Yale rd, Chilliwack",
      "is_picket_line": false,
      "location_type": "BC Cannabis Store"
    },
    {
      "city": "Colwood",
      "address": "1901 Sooke Rd",
      "coordinates": [-123.46857831950832, 48.44150281279103],
      "hours_details": "Picketing redirected to 1311 Lakepoint Way",
      "is_picket_line": false,
      "location_type": "Office"
    },
    {
      "city": "Comox",
      "address": "204 Port Augusta St",
      "coordinates": [-124.9240997749843, 49.674035429594234],
      "hours_details": "BC Liquor Store #235 Comox on strike but picketing at 1095 Cliffe Ave, Courtenay",
      "is_picket_line": false,
      "location_type": "BC Liquor Store"
    },
    {
      "city": "Coquitlam",
      "address": "1500 Woolridge",
      "coordinates": [-122.85156550043276, 49.23197722831543],
      "hours_details": "Monday to Friday, 8am-4pm",
      "is_picket_line": true,
      "location_type": "Office"
    },
    {
      "city": "Coquitlam",
      "address": "172-1960 Como Lake Ave",
      "coordinates": [-122.83756596645043, 49.26282170880275],
      "hours_details": "BC Liquor Store #153, Como Lake Picket line on site",
      "is_picket_line": true,
      "location_type": "BC Liquor Store"
    },
    {
      "city": "Courtenay",
      "address": "1095 Cliffe Ave",
      "coordinates": [-124.99534067830712, 49.68788217208051],
      "hours_details": "BC Liquor Store #10 Courtenay 9:30am to 9pm",
      "is_picket_line": true,
      "location_type": "BC Liquor Store"
    },
    {
      "city": "Courtenay",
      "address": "Unit 2A – 795 Ryan Road",
      "coordinates": [-124.98671060952357, 49.69824577568591],
      "hours_details": "BC Cannabis Store, Washington Park Picketing redirected to 1095 Cliffe Ave, Courtenay",
      "is_picket_line": false,
      "location_type": "BC Cannabis Store"
    },
    {
      "city": "Cranbrook",
      "address": "100 425 Victoria Ave N",
      "coordinates": [-115.75501568633217, 49.51600890619257],
      "hours_details": "BC Liquor Store #9, Cranbrook 9am to 5pm M-F",
      "is_picket_line": true,
      "location_type": "BC Liquor Store"
    },
    {
      "city": "Cranbrook",
      "address": "100 Cranbrook St N",
      "coordinates": [-115.7661222709863, 49.51398814193504],
      "hours_details": "only members working for Southeast Mines Office are on strike and picketing at 117 10th Ave S",
      "is_picket_line": false,
      "location_type": "Service BC"
    },
    {
      "city": "Cranbrook",
      "address": "102 – 425 Victoria Avenue North",
      "coordinates": [-115.75498628849961, 49.51618678360703],
      "hours_details": "BC Cannabis Store, Victoria Avenue picketing combined with Cranbrook BC Liquor Store at same site",
      "is_picket_line": false,
      "location_type": "BC Cannabis Store"
    },
    {
      "city": "Cranbrook",
      "address": "117 10th Ave S",
      "coordinates": [-115.76781298466803, 49.509559825127624],
      "hours_details": "Monday to Friday, 8am-4pm",
      "is_picket_line": true,
      "location_type": "Office"
    },
    {
      "city": "Cranbrook",
      "address": "129 10th Ave S",
      "coordinates": [-115.76775488747991, 49.509057851427606],
      "hours_details": "Monday to Friday, 8am-4pm MST",
      "is_picket_line": true,
      "location_type": "Office"
    },
    {
      "city": "Cranbrook",
      "address": "205 Industrial Rd G",
      "coordinates": [-115.75843311702344, 49.536329476650245],
      "hours_details": "on strike but picketing at 117 10th Ave S, Cranbrook",
      "is_picket_line": false,
      "location_type": "Office"
    },
    {
      "city": "Cumberland",
      "address": "2700 Dunsmuir Ave",
      "coordinates": [-125.0302965365573, 49.61897966172796],
      "hours_details": "BC Liquor Store #8 Cumberland on strike but picketing at 1095 Cliffe Ave, Courtenay",
      "is_picket_line": false,
      "location_type": "BC Liquor Store"
    },
    {
      "city": "Dawson Creek",
      "address": "1020 Alaska Ave",
      "coordinates": [-120.2287560571286, 55.75989943552747],
      "hours_details": "BC Liquor Store #212 Dawson Creek 9:30am to 9pm",
      "is_picket_line": true,
      "location_type": "BC Liquor Store"
    },
    {
      "city": "Dawson Creek",
      "address": "1201- 103rd Ave",
      "coordinates": [-120.23403984237356, 55.75926573727518],
      "hours_details": "Picketing redirected to 1020 Alaska Ave",
      "is_picket_line": false,
      "location_type": "Service BC"
    },
    {
      "city": "Delta",
      "address": "1319 56th street",
      "coordinates": [-123.07082955940317, 49.026608760668154],
      "hours_details": "BC Liquor Store #98, Tsawwassen Picket line on site",
      "is_picket_line": true,
      "location_type": "BC Liquor Store"
    },
    {
      "city": "Delta",
      "address": "5202 48 Ave",
      "coordinates": [-123.07907439510001, 49.089667352100264],
      "hours_details": "BC Liquor Store #25 Ladner on strike but picketing at 56th street, Delta",
      "is_picket_line": false,
      "location_type": "BC Liquor Store"
    },
    {
      "city": "Delta",
      "address": "7003 72 St",
      "coordinates": [-123.02433204401933, 49.131845376100024],
      "hours_details": "24 hours a day, 7 days a week",
      "is_picket_line": true,
      "location_type": "Office"
    },
    {
      "city": "Delta",
      "address": "7017 120 St",
      "coordinates": [-122.8928202409043, 49.13132131885967],
      "hours_details": "BC Liquor Store #145 Scottsdale on strike but picketing at 116 12080 Nordel Way, Surrey",
      "is_picket_line": false,
      "location_type": "BC Liquor Store"
    },
    {
      "city": "Delta",
      "address": "7019 120 St",
      "coordinates": [-122.89273243560253, 49.131434153019995],
      "hours_details": "BC Cannabis Store, Scottsdale Mall picketing redirected to BC Liquor store 12080 Nordel Way",
      "is_picket_line": false,
      "location_type": "BC Cannabis Store"
    },
    {
      "city": "Duncan",
      "address": "1-180 Central Blvd",
      "coordinates": [-123.70065118920863, 48.77542951192886],
      "hours_details": "BC Liquor Store #12, Duncan 9-5 every day, M to Sunday",
      "is_picket_line": true,
      "location_type": "BC Liquor Store"
    },
    {
      "city": "Enderby",
      "address": "119 George Street",
      "coordinates": [-119.13983418390923, 50.54413923290283],
      "hours_details": "BC Liquor Store #49, Enderby picketing redirected to 500 360 Trans Canada Hwy, Salmon Arm",
      "is_picket_line": false,
      "location_type": "BC Liquor Store"
    },
    {
      "city": "Fort St. John",
      "address": "10003 110th Ave",
      "coordinates": [-120.8484444302564, 56.25498181121155],
      "hours_details": "Monday to Friday, 8am-4pm",
      "is_picket_line": true,
      "location_type": "Front Desk BC"
    },
    {
      "city": "Fort St. John",
      "address": "10211 100 Street",
      "coordinates": [-120.84709009215942, 56.248734309579],
      "hours_details": "BC Cannabis Store, North Gate Picketing redirected to 10215 100th Street, Fort St John",
      "is_picket_line": true,
      "location_type": "BC Cannabis Store"
    },
    {
      "city": "Fort St. John",
      "address": "10215 100th St.",
      "coordinates": [-120.84711619970113, 56.24889590702826],
      "hours_details": "BC Liquor Store #3, Fort St. John Mon-Fri 10am-2pm",
      "is_picket_line": true,
      "location_type": "BC Liquor Store"
    },
    {
      "city": "Kamloops",
      "address": "1801 Princeton-Kamloops Hwy",
      "coordinates": [-120.36719055930932, 50.65313551638878],
      "hours_details": "on strike but picketing at other Kamloops picket lines",
      "is_picket_line": false,
      "location_type": "Office"
    },
    {
      "city": "Kamloops",
      "address": "19 3435 Westsyde Road",
      "coordinates": [-120.34066802171792, 50.77138538120642],
      "hours_details": "BC Liquor Store #147, Kamloops Westsyde Picket line on site",
      "is_picket_line": true,
      "location_type": "BC Liquor Store"
    },
    {
      "city": "Kamloops",
      "address": "2650 West Trans-Canada Highway",
      "coordinates": [-119.22746881540255, 50.72296932817425],
      "hours_details": "CVSE Scale",
      "is_picket_line": false,
      "location_type": "CVSE"
    },
    {
      "city": "Kamloops",
      "address": "441 Columbia Street",
      "coordinates": [-120.33165597492842, 50.6687529664251],
      "hours_details": "Picket line on site",
      "is_picket_line": true,
      "location_type": "Front Desk BC"
    },
    {
      "city": "Kamloops",
      "address": "447 Columbia Street",
      "coordinates": [-120.33063059566007, 50.66847057531782],
      "hours_details": "Picket line on site",
      "is_picket_line": true,
      "location_type": "Office"
    },
    {
      "city": "Kamloops",
      "address": "450 Lansdowne St",
      "coordinates": [-120.32932503600125, 50.677037980008045],
      "hours_details": "BC Cannabis Store, Landsdowne Picketing redirected to 1210 Summit",
      "is_picket_line": false,
      "location_type": "BC Cannabis Store"
    },
    {
      "city": "Kamloops",
      "address": "600-1210 Summit Dr",
      "coordinates": [-120.35325314403848, 50.66587561056809],
      "hours_details": "BC Liquor Store #79 Kamloops Columbia Place Monday to Saturday 9am-9pm, Sunday 11am-6pm",
      "is_picket_line": true,
      "location_type": "BC Liquor Store"
    },
    {
      "city": "Kamloops",
      "address": "700 Tranquille Rd Unit 40",
      "coordinates": [-120.35887192762102, 50.69758195206325],
      "hours_details": "BC Cannabis Store, North Hills picket line on site",
      "is_picket_line": true,
      "location_type": "BC Cannabis Store"
    },
    {
      "city": "Kamloops",
      "address": "78 700 Tranquille Road",
      "coordinates": [-120.36127525886076, 50.69760973757978],
      "hours_details": "BC Liquor Store #223, Kamloops North Picketing at 78-700 Tranquille Rd",
      "is_picket_line": false,
      "location_type": "BC Liquor Store"
    },
    {
      "city": "Kamloops",
      "address": "9881 Dallas Drive",
      "coordinates": [-120.0554470862904, 50.65380200371504],
      "hours_details": "24 hours a day, 7 days a week",
      "is_picket_line": true,
      "location_type": "Office"
    },
    {
      "city": "Kelowna",
      "address": "1060 Manhattan Dr",
      "coordinates": [-119.49592998280625, 49.89702148939096],
      "hours_details": "on strike but picketing at 3155 Lakeshore Rd, Kelowna",
      "is_picket_line": false,
      "location_type": "Office"
    },
    {
      "city": "Kelowna",
      "address": "1835 Dilworth Dr",
      "coordinates": [-119.43560598087417, 49.88159209898322],
      "hours_details": "BC Liquor Store #167 Kelowna Orchard Park Monday to Saturday 9am-9pm, Sunday 11am-6pm",
      "is_picket_line": true,
      "location_type": "BC Liquor Store"
    },
    {
      "city": "Kelowna",
      "address": "2385 Hwy 97 N",
      "coordinates": [-119.42942660235735, 49.8837577747037],
      "hours_details": "BC Cannabis Store, Dilworth Shopping Centre picketing redirected to BC Liquor Store at 1835 Dilworth Dr #109, Kelowna",
      "is_picket_line": false,
      "location_type": "BC Cannabis Store"
    },
    {
      "city": "Kelowna",
      "address": "27 2475 Dobbin Rd",
      "coordinates": [-119.62973822786803, 49.82817562551062],
      "hours_details": "BC Liquor Store #143, Kelowna Westbank Picket line on site",
      "is_picket_line": true,
      "location_type": "BC Liquor Store"
    },
    {
      "city": "Kelowna",
      "address": "35 3155 Lakeshore Rd",
      "coordinates": [-119.48940524002393, 49.859839978180105],
      "hours_details": "BC Liquor Store #148 Kelowna Mission Park Monday to Saturday 9am-9pm, Sunday 11am-6pm",
      "is_picket_line": true,
      "location_type": "BC Liquor Store"
    },
    {
      "city": "Kelowna",
      "address": "478 Bernard Ave",
      "coordinates": [-119.49400108817416, 49.88663027340071],
      "hours_details": "Monday to Friday, 8:30am-4:30pm",
      "is_picket_line": true,
      "location_type": "Service BC"
    },
    {
      "city": "Kimberley",
      "address": "425 Mark Street",
      "coordinates": [-115.98183663888571, 49.68354531614503],
      "hours_details": "BC Liquor Store #66, Kimberley Picket line on site",
      "is_picket_line": true,
      "location_type": "BC Liquor Store"
    },
    {
      "city": "Ladysmith",
      "address": "7 370 Davis Road",
      "coordinates": [-123.80470907286139, 48.97848254915847],
      "hours_details": "BC Liquor Store #24, Ladysmith Picketing at 1533 Estevan Road, Nanaimo",
      "is_picket_line": true,
      "location_type": "BC Liquor Store"
    },
    {
      "city": "Victoria",
      "address": "2780 Veterans Memorial Pkwy",
      "coordinates": [-123.49597321787779, 48.448270359285296],
      "hours_details": "picketing redirected to 1311 Lakepoint Way",
      "is_picket_line": false,
      "location_type": "Office"
    },
    {
      "city": "Langford",
      "address": "2930 Trans Canada Hwy",
      "coordinates": [-123.54471822479054, 48.4623990750458],
      "hours_details": "Picketing redirected to 1311 Lakepoint Way",
      "is_picket_line": false,
      "location_type": "Office"
    },
    {
      "city": "Langford",
      "address": "600-2945 Jacklin Rd",
      "coordinates": [-123.50653837244776, 48.44068226667487],
      "hours_details": "BC Liquor Store #125, Westshore Monday to Saturday 9am-9pm, Sunday 11am-6pm",
      "is_picket_line": true,
      "location_type": "BC Liquor Store"
    },
    {
      "city": "Langley",
      "address": "20202 66 Ave #150",
      "coordinates": [-122.6643646305291, 49.121104409240225],
      "hours_details": "BC Cannabis Store, Langley picketing redirected to BC Liquor Langley-6435 201 St, Langley",
      "is_picket_line": false,
      "location_type": "BC Cannabis Store"
    },
    {
      "city": "Langley",
      "address": "26310 Fraser Hwy",
      "coordinates": [-122.49552378302845, 49.05912806039577],
      "hours_details": "BC Liquor Store #109 Aldergrove on strike but picketing at 2070 Sumas Way, Abbotsford",
      "is_picket_line": false,
      "location_type": "BC Liquor Store"
    },
    {
      "city": "Langley",
      "address": "6435-201 St",
      "coordinates": [-122.66623896093836, 49.11995710781093],
      "hours_details": "BC Liquor Store #158, Langley Picket line on site",
      "is_picket_line": true,
      "location_type": "BC Liquor Store"
    },
    {
      "city": "Langley",
      "address": "8840 210 St",
      "coordinates": [-122.63710421626716, 49.16361169443282],
      "hours_details": "BC Liquor Store #186 Walnut Grove on strike but picketing 17780 56 ave, Surrey",
      "is_picket_line": false,
      "location_type": "BC Liquor Store"
    },
    {
      "city": "Langley",
      "address": "9110 Glover Rd",
      "coordinates": [-122.57941112034777, 49.16776788644201],
      "hours_details": "BC Liquor Store #127 Fort Langley on strike but picketing 17780 56 ave, Surrey",
      "is_picket_line": false,
      "location_type": "BC Liquor Store"
    },
    {
      "city": "Lumby",
      "address": "2080 Vernon St",
      "coordinates": [-118.96734915587407, 50.24689279023162],
      "hours_details": "BC Liquor Store, picket line on site",
      "is_picket_line": true,
      "location_type": "BC Liquor Store"
    },
    {
      "city": "Maple Ridge",
      "address": "300 22709 Lougheed Hwy",
      "coordinates": [-122.59180845936235, 49.218004429380414],
      "hours_details": "BC Liquor Store #65, Haney 9am to 7pm - all week",
      "is_picket_line": true,
      "location_type": "BC Liquor Store"
    },
    {
      "city": "Mill Bay",
      "address": "270 2720 Mill Bay Road",
      "coordinates": [-123.55895822208286, 48.65189275028906],
      "hours_details": "BC Liquor Store #173, Mill Bay Picketing redirected to Duncan Liquor Store - 1, 180 Central Blvd, Duncan",
      "is_picket_line": false,
      "location_type": "BC Liquor Store"
    },
    {
      "city": "Mission",
      "address": "32530 Lougheed Hwy",
      "coordinates": [-122.32159147091046, 49.132274049273036],
      "hours_details": "BC Liquor Store #27 Mission on strike but picketing at 2070 Sumas Way, Abbotsford",
      "is_picket_line": false,
      "location_type": "BC Liquor Store"
    },
    {
      "city": "Nanaimo",
      "address": "115 650 S Terminal Ave",
      "coordinates": [-123.93276868209742, 49.16503966619453],
      "hours_details": "BC Liquor Store #33, Nanaimo Port Place Picketing at 1533 Estevan Road, Nanaimo",
      "is_picket_line": false,
      "location_type": "BC Liquor Store"
    },
    {
      "city": "Nanaimo",
      "address": "1533 Estevan Road",
      "coordinates": [-123.956736138453, 49.18503554556636],
      "hours_details": "BC Liquor Store #243, Nanaimo Terminal Park Picket line on site",
      "is_picket_line": true,
      "location_type": "BC Liquor Store"
    },
    {
      "city": "Nanaimo",
      "address": "2080 Labieux Road",
      "coordinates": [-123.99355163895063, 49.20115124765564],
      "hours_details": "Picketing redirtected to BC Liquor Store at 1533 Estevan Rd",
      "is_picket_line": true,
      "location_type": "Front Desk BC"
    },
    {
      "city": "Nanaimo",
      "address": "2100 Labieux Road",
      "coordinates": [-123.99583964401677, 49.20176771627072],
      "hours_details": "Picket line on site",
      "is_picket_line": true,
      "location_type": "Office"
    },
    {
      "city": "Nanaimo",
      "address": "3 5765 Turner Road",
      "coordinates": [-124.03471870236173, 49.22405674296205],
      "hours_details": "BC Liquor Store #188, Nanaimo Longwood Station Picketing at 1533 Estevan Road, Nanaimo",
      "is_picket_line": true,
      "location_type": "BC Liquor Store"
    },
    {
      "city": "Nelson",
      "address": "209 Anderson Street",
      "coordinates": [-117.28328813171996, 49.50042681082435],
      "hours_details": "BC Liquor Store #32, Nelson Picket line on site",
      "is_picket_line": true,
      "location_type": "BC Liquor Store"
    },
    {
      "city": "Nelson",
      "address": "401 - 333 Victoria St",
      "coordinates": [-117.29551970167921, 49.490763577737034],
      "hours_details": "Picketing at the pink building",
      "is_picket_line": true,
      "location_type": "Front Desk BC"
    },
    {
      "city": "Nelson",
      "address": "566 Stanley Street",
      "coordinates": [-117.29485581702527, 49.490919477382015],
      "hours_details": "Monday to Friday, 8am-4pm",
      "is_picket_line": true,
      "location_type": "Office"
    },
    {
      "city": "New Westminster",
      "address": "1075 Columbia Street",
      "coordinates": [-122.91922181059233, 49.200701560096384],
      "hours_details": "BC Liquor Store #31, New Westminster Picket line on site",
      "is_picket_line": true,
      "location_type": "BC Liquor Store"
    },
    {
      "city": "North Vancouver",
      "address": "100-132 Esplanade W",
      "coordinates": [-123.08046524314322, 49.311777257270606],
      "hours_details": "BC Liquor Store #196 Esplanade on strike but picketing at 1199 Lynn Valley Rd, North Vancouver",
      "is_picket_line": false,
      "location_type": "BC Liquor Store"
    },
    {
      "city": "North Vancouver",
      "address": "147-1199 Lynn Valley Rd",
      "coordinates": [-123.03983185157881, 49.335382580949634],
      "hours_details": "BC Liquor Store #247, Lynn Valley Picket line on site",
      "is_picket_line": true,
      "location_type": "BC Liquor Store"
    },
    {
      "city": "North Vancouver",
      "address": "2601 Westview Dr",
      "coordinates": [-123.0903121257282, 49.33322201195365],
      "hours_details": "BC Liquor Store #107 Westview on strike but picketing at 5335 Headland Dr, West Vancouver",
      "is_picket_line": false,
      "location_type": "BC Liquor Store"
    },
    {
      "city": "North Vancouver",
      "address": "411 Dollarton Hwy",
      "coordinates": [-122.95385597640646, 49.30699494308556],
      "hours_details": "BC Liquor Store #133 Dollarton Village on strike but picketing at 1199 Lynn Valley Rd, North Vancouver",
      "is_picket_line": false,
      "location_type": "BC Liquor Store"
    },
    {
      "city": "North Vancouver",
      "address": "935 Marine Dr",
      "coordinates": [-123.1010842226423, 49.3211831161129],
      "hours_details": "BC Liquor Store #152 Capilano Mall on strike but picketing at 5335 Headland Dr, West Vancouver",
      "is_picket_line": false,
      "location_type": "BC Liquor Store"
    },
    {
      "city": "Osoyoos",
      "address": "8110 Main St",
      "coordinates": [-119.46212122231063, 49.030056048278404],
      "hours_details": "BC Liquor Store #83, Osoyoos 9am to 7pm - all week",
      "is_picket_line": true,
      "location_type": "BC Liquor Store"
    },
    {
      "city": "Parksville",
      "address": "810 West island Hwy",
      "coordinates": [-124.34410188980594, 49.32939434714521],
      "hours_details": "BC Liquor Store #157, Parksville North Picket line on site",
      "is_picket_line": true,
      "location_type": "BC Liquor Store"
    },
    {
      "city": "Parksville",
      "address": "Unit 7 – 826 Island Hwy W",
      "coordinates": [-124.34669569964332, 49.33150361419566],
      "hours_details": "BC Cannabis Store, Wembley Picketing redirected to 810 West island Hwy, Parksville",
      "is_picket_line": false,
      "location_type": "BC Cannabis Store"
    },
    {
      "city": "Pemberton",
      "address": "7445 Frontier St",
      "coordinates": [-122.80638678252132, 50.32293284020399],
      "hours_details": "BC Liquor Store #101 Pemberton on strike but picketing at 4360 Lorimer Rd, Whistler",
      "is_picket_line": false,
      "location_type": "BC Liquor Store"
    },
    {
      "city": "Penticton",
      "address": "102 Industrial Place",
      "coordinates": [-119.59491123237171, 49.47818534827257],
      "hours_details": "Monday to Friday, 8:30am-4:30pm",
      "is_picket_line": true,
      "location_type": "Office"
    },
    {
      "city": "Penticton",
      "address": "106 Main St",
      "coordinates": [-119.58011418180918, 49.47394333620032],
      "hours_details": "BC Cannabis Store, Power Centre Picketing redirected to BC Liquor Store at 1301 Main St #406, Penticton",
      "is_picket_line": false,
      "location_type": "BC Cannabis Store"
    },
    {
      "city": "Penticton",
      "address": "106 – 2210 Main St",
      "coordinates": [-119.58036941064637, 49.47339857674645],
      "hours_details": "BC Cannabis Store, Power Centre Picketing redirected to 405, 1301 Main St, Penticton",
      "is_picket_line": false,
      "location_type": "BC Cannabis Store"
    },
    {
      "city": "Penticton",
      "address": "405-1301 Main St",
      "coordinates": [-119.58748459875382, 49.48503162750471],
      "hours_details": "BC Liquor Store #130, Penticton Plaza Picket line on site",
      "is_picket_line": true,
      "location_type": "BC Liquor Store"
    },
    {
      "city": "Pitt Meadows",
      "address": "810-19800 Lougheed Highway",
      "coordinates": [-122.6708981807442, 49.2223992314018],
      "hours_details": "BC Liquor Store #165, Meadowtown Picket line on site",
      "is_picket_line": true,
      "location_type": "BC Liquor Store"
    },
    {
      "city": "Port Alberni",
      "address": "303 – 3555 Johnston Road",
      "coordinates": [-124.78768594275947, 49.266413501583884],
      "hours_details": "BC Cannabis Store, Pacific Rim Picket line redirected to 3764 10th Ave, Port Alberni",
      "is_picket_line": false,
      "location_type": "BC Cannabis Store"
    },
    {
      "city": "Port Coquitlam",
      "address": "109‑985 Nicola Avenue",
      "coordinates": [-122.74124003052414, 49.25673733403237],
      "hours_details": "BC Cannabis Store, Nicola Picketing redirected to 1097 Nicola Ave",
      "is_picket_line": false,
      "location_type": "BC Cannabis Store"
    },
    {
      "city": "Port Coquitlam",
      "address": "140-1097 Nicola Ave",
      "coordinates": [-122.7440090180478, 49.2580677203043],
      "hours_details": "BC Liquor Store #205, Nicola Station Picket line on site",
      "is_picket_line": true,
      "location_type": "BC Liquor Store"
    },
    {
      "city": "Port Coquitlam",
      "address": "2748 Lougheed Hwy",
      "coordinates": [-122.78893174307507, 49.27219072697277],
      "hours_details": "BC Liquor Store #163 Westwood Centre Monday to Saturday 9am-9pm, Sunday 11am-6pm",
      "is_picket_line": true,
      "location_type": "BC Liquor Store"
    },
    {
      "city": "Powell River",
      "address": "91 7100 Alberni Street",
      "coordinates": [-124.51721347397073, 49.84491396094138],
      "hours_details": "BC Liquor Store #41, Powell River Picketing at 7035 Barnet St",
      "is_picket_line": true,
      "location_type": "BC Liquor Store"
    },
    {
      "city": "Prince George",
      "address": "1011 4th Ave",
      "coordinates": [-122.74232801685817, 53.9150654610895],
      "hours_details": "Monday-Friday, 7am-5:30pm",
      "is_picket_line": true,
      "location_type": "Office"
    },
    {
      "city": "Prince George",
      "address": "1577 7th Ave",
      "coordinates": [-122.75248251969896, 53.9153745657152],
      "hours_details": "on strike but picketing at 3173 Massey Drive, Prince George",
      "is_picket_line": false,
      "location_type": "Office"
    },
    {
      "city": "Prince George",
      "address": "3173-Massey Dr",
      "coordinates": [-122.78121709534348, 53.899117484142],
      "hours_details": "BC Liquor Store #174, Prince George Pine Centre Picket line on site",
      "is_picket_line": true,
      "location_type": "BC Liquor Store"
    },
    {
      "city": "Prince Rupert",
      "address": "100 2nd Ave W",
      "coordinates": [-130.3226311927374, 54.31591655115688],
      "hours_details": "BC Liquor Store #35 Prince Rupert 9:30am to 7pm",
      "is_picket_line": true,
      "location_type": "BC Liquor Store"
    },
    {
      "city": "Revelstoke",
      "address": "111 Campbell",
      "coordinates": [-118.19636619063907, 51.00007602645901],
      "hours_details": "BC Liquor Store #45, Revelstoke 9am to 7pm - all week",
      "is_picket_line": true,
      "location_type": "BC Liquor Store"
    },
    {
      "city": "Richmond",
      "address": "10-8671 No 1 Rd",
      "coordinates": [-123.18250226865695, 49.14885654087577],
      "hours_details": "BC Liquor Store #244 Richmond Seafair Monday to Saturday 9am-9pm, Sunday 11am-6pm",
      "is_picket_line": true,
      "location_type": "BC Liquor Store"
    },
    {
      "city": "Richmond",
      "address": "3170-11666 Steveston Hwy",
      "coordinates": [-123.0944986822158, 49.132239108942564],
      "hours_details": "BC Liquor Store #120, Richmond Ironwood Picket line on site",
      "is_picket_line": true,
      "location_type": "BC Liquor Store"
    },
    {
      "city": "Richmond",
      "address": "3389 No 6 Rd",
      "coordinates": [-123.07026265750764, 49.18784045397833],
      "hours_details": "6am-10pm",
      "is_picket_line": true,
      "location_type": "Office"
    },
    {
      "city": "Richmond",
      "address": "8100 Ackroyd Rd",
      "coordinates": [-123.13527135153582, 49.17140335435468],
      "hours_details": "BC Liquor Store #76 Richmond Brighouse Monday to Saturday 9am-9pm, Sunday 11am-6pm",
      "is_picket_line": true,
      "location_type": "BC Liquor Store"
    },
    {
      "city": "Saanich",
      "address": "3561 Blanshard St",
      "coordinates": [-123.37558205347838, 48.45576595377055],
      "hours_details": "BC Cannabis Store, Uptown on strike but picketing at 3350 Douglas, Victoria",
      "is_picket_line": false,
      "location_type": "BC Cannabis Store"
    },
    {
      "city": "Saanich",
      "address": "4234 Glanford Ave",
      "coordinates": [-123.39094829469309, 48.482780394541074],
      "hours_details": "Picketing redirected to 4000 Seymour",
      "is_picket_line": false,
      "location_type": "Office"
    },
    {
      "city": "Saanich",
      "address": "6578 Byrn Rd.",
      "coordinates": [-123.42463813791726, 48.56008570593606],
      "hours_details": "on strike but picketing at 4000 Seymour",
      "is_picket_line": false,
      "location_type": "Office"
    },
    {
      "city": "Saanich",
      "address": "7380 Puckle Rd",
      "coordinates": [-123.39078273054884, 48.58042522223651],
      "hours_details": "Picketing redirected to 1311 Lakepoint Way",
      "is_picket_line": false,
      "location_type": "Office"
    },
    {
      "city": "Salmon Arm",
      "address": "500 360 Trans Canada Hwy",
      "coordinates": [-119.28858434509236, 50.6995120954585],
      "hours_details": "BC Liquor Store #48, Salmon Arm 9am to 7pm - all week",
      "is_picket_line": true,
      "location_type": "BC Liquor Store"
    },
    {
      "city": "Sicamous",
      "address": "309 Main Street",
      "coordinates": [-118.98670495896238, 50.835376702813335],
      "hours_details": "BC Liquor Store #92, Sicamous picketing redirected to 500 360 Trans Canada Hwy, Salmon Arm",
      "is_picket_line": false,
      "location_type": "BC Liquor Store"
    },
    {
      "city": "Sidney",
      "address": "2071 Malaview Ave",
      "coordinates": [-123.41327887469815, 48.65649435519387],
      "hours_details": "on strike but picketing at 1311 Lakepoint Way, Langford",
      "is_picket_line": false,
      "location_type": "Office"
    },
    {
      "city": "Sidney",
      "address": "2335 Beacon Ave",
      "coordinates": [-123.40314267160159, 48.64837061254691],
      "hours_details": "BC Liquor Store #, Sidney picket line on site",
      "is_picket_line": true,
      "location_type": "BC Liquor Store"
    },
    {
      "city": "Smithers",
      "address": "3726 Alfred Avenue",
      "coordinates": [-127.17285364380541, 54.7777460423426],
      "hours_details": "Picket line on site",
      "is_picket_line": true,
      "location_type": "Front Desk BC"
    },
    {
      "city": "Sooke",
      "address": "6672 Wadams Way",
      "coordinates": [-123.72400626573534, 48.38196940437271],
      "hours_details": "On strike but picketing at 9050 6660 Sooke Rd",
      "is_picket_line": false,
      "location_type": "Office"
    },
    {
      "city": "Sooke",
      "address": "9050 6660 Sooke Rd",
      "coordinates": [-123.72119787388003, 48.37919919381069],
      "hours_details": "BC Liquor Store #229 Sooke 9:30am to 9pm",
      "is_picket_line": true,
      "location_type": "BC Liquor Store"
    },
    {
      "city": "Squamish",
      "address": "40204 Glenalder Place",
      "coordinates": [-123.13339525510821, 49.737572635892604],
      "hours_details": "BC Liquor Store #, Squamish Picket line on site",
      "is_picket_line": true,
      "location_type": "BC Liquor Store"
    },
    {
      "city": "Summerland",
      "address": "13604 Victoria Rd",
      "coordinates": [-119.6842194589473, 49.60382507075938],
      "hours_details": "BC Liquor Store #86 Summerland on strike but picketing at 1301 Main St, Penticton",
      "is_picket_line": false,
      "location_type": "BC Liquor Store"
    },
    {
      "city": "Surrey",
      "address": "101 10761 King George Blvd",
      "coordinates": [-122.84613393052634, 49.198274853201895],
      "hours_details": "BC Liquor Store #122, Whalley picketing redirected to Fleetwood 8904 152nd Street, Surrey",
      "is_picket_line": false,
      "location_type": "BC Liquor Store"
    },
    {
      "city": "Surrey",
      "address": "101-17780 56 ave",
      "coordinates": [-122.72987069832479, 49.10296333446526],
      "hours_details": "BC Liquor Store #70, Cloverdale Picket line on site",
      "is_picket_line": true,
      "location_type": "BC Liquor Store"
    },
    {
      "city": "Surrey",
      "address": "10470 152nd Street",
      "coordinates": [-122.80052380168998, 49.19284141219725],
      "hours_details": "Picket line on site",
      "is_picket_line": true,
      "location_type": "Service BC"
    },
    {
      "city": "Surrey",
      "address": "10475 138 Street",
      "coordinates": [-122.84034859005503, 49.19333165053479],
      "hours_details": "Picketing redirected to either 900 Howe, Vancouver, or 10470 152nd St, Surrey",
      "is_picket_line": false,
      "location_type": "Office"
    },
    {
      "city": "Surrey",
      "address": "116-12080 Nordel Way",
      "coordinates": [-122.8887383443004, 49.16100117442227],
      "hours_details": "BC Liquor Store #241 Nordel Crossing Monday to Saturday 9am-9pm, Sunday 11am-6pm",
      "is_picket_line": true,
      "location_type": "BC Liquor Store"
    },
    {
      "city": "Surrey",
      "address": "12881 16th Ave",
      "coordinates": [-122.86515241523283, 49.0321255635384],
      "hours_details": "BC Liquor Store #110 Ocean Park on strike but picketing at 15355 24th Ave, Surrey",
      "is_picket_line": false,
      "location_type": "BC Liquor Store"
    },
    {
      "city": "Surrey",
      "address": "14323 57 Ave",
      "coordinates": [-122.82604835936623, 49.10713546330671],
      "hours_details": "Monday to Friday, 6:20am-4pm; and Saturday to Sunday, 10am-2pm",
      "is_picket_line": true,
      "location_type": "Office"
    },
    {
      "city": "Surrey",
      "address": "1711 152 St",
      "coordinates": [-122.80219624983626, 49.03178523967631],
      "hours_details": "BC Liquor Store #6 Semiahmoo on strike but picketing at 15355 24th Ave, Surrey",
      "is_picket_line": false,
      "location_type": "BC Liquor Store"
    },
    {
      "city": "Surrey",
      "address": "1720-10355 152nd Street",
      "coordinates": [-122.80375658634392, 49.1919602032174],
      "hours_details": "BC Liquor Store #240, Guildford Picketing redirected to Fleetwood 8904 152nd Street, Surrey",
      "is_picket_line": false,
      "location_type": "BC Liquor Store"
    },
    {
      "city": "Surrey",
      "address": "280-15355 24th Ave",
      "coordinates": [-122.79855480575105, 49.046990583725886],
      "hours_details": "BC Liquor Store #183 Peninsula Village Monday to Saturday 9am-9pm, Sunday 11am-6pm",
      "is_picket_line": true,
      "location_type": "BC Liquor Store"
    },
    {
      "city": "Surrey",
      "address": "7488 King George Blvd",
      "coordinates": [-122.84404627776526, 49.13739886514814],
      "hours_details": "BC Liquor Store #172 Kings Cross on strike but picketing at 116 12080 Nordel Way, Surrey",
      "is_picket_line": false,
      "location_type": "BC Liquor Store"
    },
    {
      "city": "Surrey",
      "address": "8904 152nd Street",
      "coordinates": [-122.80062024401806, 49.1647504949085],
      "hours_details": "BC Liquor Store #182, Fleetwood Picket line on site",
      "is_picket_line": true,
      "location_type": "BC Liquor Store"
    },
    {
      "city": "Terrace",
      "address": "103 – 4761 Lakelse Ave",
      "coordinates": [-128.5980849340208, 54.516654279094794],
      "hours_details": "BC Cannabis Store, Skeena Mall Picketing redirected to 3240 Eby Street, Terrace",
      "is_picket_line": false,
      "location_type": "BC Cannabis Store"
    },
    {
      "city": "Terrace",
      "address": "Highway 15 at K'San Ave",
      "coordinates": [-128.52428217651547, 54.52966843455616],
      "hours_details": "CVSE Scale",
      "is_picket_line": true,
      "location_type": "CVSE"
    },
    {
      "city": "Trail",
      "address": "8100 BC-3B",
      "coordinates": [-117.63512270751279, 49.09164986644348],
      "hours_details": "BC Cannabis Store, Waneta Place Picketing redirected to 1629 2nd Ave, Trail",
      "is_picket_line": false,
      "location_type": "BC Cannabis Store"
    },
    {
      "city": "Tumbler Ridge",
      "address": "225 Main St",
      "coordinates": [-120.9992834955904, 55.12544723181716],
      "hours_details": "BC Liquor Store #169, Tumbler Ridge Mon-Fri 10am-2pm",
      "is_picket_line": true,
      "location_type": "BC Liquor Store"
    },
    {
      "city": "Vancouver",
      "address": "101 2083 Alma Street",
      "coordinates": [-123.18645163052388, 49.26807678653384],
      "hours_details": "BC Liquor Store #90, Jericho Village Picketing redirected to Marpole- 1525 W 70th, Vancouver",
      "is_picket_line": false,
      "location_type": "BC Liquor Store"
    },
    {
      "city": "Vancouver",
      "address": "1050 Pender St W",
      "coordinates": [-123.11956956050423, 49.28720234260919],
      "hours_details": "on strike but picketing at nearest picket line",
      "is_picket_line": false,
      "location_type": "Office"
    },
    {
      "city": "Vancouver",
      "address": "1085 Cambie St",
      "coordinates": [-123.1189969316693, 49.27571626649852],
      "hours_details": "on strike but picketing at nearest picket line",
      "is_picket_line": false,
      "location_type": "Office"
    },
    {
      "city": "Vancouver",
      "address": "1108 Pacific Blvd",
      "coordinates": [-123.11972544131096, 49.27418080207073],
      "hours_details": "BC Liquor Store #191 Yaletown on strike but picketing at 1155 Bute St",
      "is_picket_line": false,
      "location_type": "BC Liquor Store"
    },
    {
      "city": "Vancouver",
      "address": "1155 Bute St",
      "coordinates": [-123.13317085986782, 49.282427558991685],
      "hours_details": "BC Liquor Store #94 Bute St 9am-7pm",
      "is_picket_line": true,
      "location_type": "BC Liquor Store"
    },
    {
      "city": "Vancouver",
      "address": "1520 Commercial Drive",
      "coordinates": [-123.0693721593602, 49.27108537728878],
      "hours_details": "BC Liquor Store #111, Commercial Drive picketing redirected to Broadway 3150 E Broadway, Vancouver",
      "is_picket_line": false,
      "location_type": "BC Liquor Store"
    },
    {
      "city": "Vancouver",
      "address": "1525 W. 70th Ave",
      "coordinates": [-123.14160260961314, 49.208846218522865],
      "hours_details": "BC Liquor Store #38, Marpole 9am to 7pm - all week",
      "is_picket_line": true,
      "location_type": "BC Liquor Store"
    },
    {
      "city": "Vancouver",
      "address": "1655 Davie St",
      "coordinates": [-123.1395319206482, 49.286057538652784],
      "hours_details": "BC Liquor Store #112 Cardero on strike but picketing at 1155 Bute St",
      "is_picket_line": false,
      "location_type": "BC Liquor Store"
    },
    {
      "city": "Vancouver",
      "address": "1716 Robson St",
      "coordinates": [-123.13446646078879, 49.290591160913586],
      "hours_details": "BC Liquor Store #233 Robson on strike but picketing at 1155 Bute St",
      "is_picket_line": false,
      "location_type": "BC Liquor Store"
    },
    {
      "city": "Vancouver",
      "address": "1725 Robson St",
      "coordinates": [-123.13422300440948, 49.29099004187242],
      "hours_details": "on strike but picketing at nearest picket line",
      "is_picket_line": false,
      "location_type": "Office"
    },
    {
      "city": "Vancouver",
      "address": "2058 41st Ave W",
      "coordinates": [-123.15384699583737, 49.23438647449683],
      "hours_details": "BC Liquor Store #210 Kerrisdale on strike but picketing at 3453 Dunbar, Vancouver",
      "is_picket_line": false,
      "location_type": "BC Liquor Store"
    },
    {
      "city": "Vancouver",
      "address": "2088 Broadway W",
      "coordinates": [-123.1516635452868, 49.26615932896947],
      "hours_details": "BC Liquor Store Broadway & Maple on strike but picketing at a nearby line",
      "is_picket_line": false,
      "location_type": "BC Liquor Store"
    },
    {
      "city": "Vancouver",
      "address": "2120 Lahb Ave",
      "coordinates": [-123.15420254146882, 49.248399017717894],
      "hours_details": "BC Liquor Store #136 Arbutus on strike but picketing at 3453 Dunbar, Vancouver",
      "is_picket_line": false,
      "location_type": "BC Liquor Store"
    },
    {
      "city": "Vancouver",
      "address": "2395 Cambie St",
      "coordinates": [-123.11519691531554, 49.264820316878605],
      "hours_details": "BC Liquor Store #177 8th and Cambie Monday to Saturday 9am-9pm (except Saturday September 27 will be 7:30am-9pm), Sunday 11am-6pm",
      "is_picket_line": true,
      "location_type": "BC Liquor Store"
    },
    {
      "city": "Vancouver",
      "address": "3150 Broadway",
      "coordinates": [-123.03741927285104, 49.26174550019371],
      "hours_details": "BC Liquor Store #300, Broadway and Lillooet 9am to 7pm - all week",
      "is_picket_line": true,
      "location_type": "BC Liquor Store"
    },
    {
      "city": "Vancouver",
      "address": "3150 E 54th Ave",
      "coordinates": [-123.04015015507348, 49.219885519713365],
      "hours_details": "BC Liquor Store #194 Champlain Square on strike but picketing at 2395 Cambie St, Vancouver",
      "is_picket_line": false,
      "location_type": "BC Liquor Store"
    },
    {
      "city": "Vancouver",
      "address": "3313 Shrum Lane",
      "coordinates": [-123.23635169577284, 49.25466549162515],
      "hours_details": "BC Liquor Store #192 UBC Wesbrook Village on strike but picketing at 3453 Dunbar, Vancouver",
      "is_picket_line": false,
      "location_type": "BC Liquor Store"
    },
    {
      "city": "Vancouver",
      "address": "3436 Kingsway Ave",
      "coordinates": [-123.03232523238083, 49.23161056263111],
      "hours_details": "BC Liquor Store #113, Collingwood Kingsway picketing redirected to Broadway 3150 E Broadway, Vancouver",
      "is_picket_line": false,
      "location_type": "BC Liquor Store"
    },
    {
      "city": "Vancouver",
      "address": "3453 Dunbar",
      "coordinates": [-123.18538168755107, 49.25659773073294],
      "hours_details": "BC Liquor Store #102 Dunbar Monday to Saturday 9am-9pm (except Saturday September 27 will be 7:30am-9pm), Sunday 11am-6pm",
      "is_picket_line": true,
      "location_type": "BC Liquor Store"
    },
    {
      "city": "Vancouver",
      "address": "370 E Broadway",
      "coordinates": [-123.09713597188946, 49.26314347550628],
      "hours_details": "BC Liquor Store #123 Kingsgate Mall on strike but picketing at 2395 Cambie St, Vancouver",
      "is_picket_line": false,
      "location_type": "BC Liquor Store"
    },
    {
      "city": "Vancouver",
      "address": "401 Georgia St W",
      "coordinates": [-123.114846931669, 49.281318550836],
      "hours_details": "on strike but picketing at nearest picket line",
      "is_picket_line": false,
      "location_type": "Office"
    },
    {
      "city": "Vancouver",
      "address": "4423 Main St",
      "coordinates": [-123.10148765505046, 49.24557441999257],
      "hours_details": "BC Liquor Store #237 28th and Main on strike but picketing at 2395 Cambie St, Vancouver",
      "is_picket_line": false,
      "location_type": "BC Liquor Store"
    },
    {
      "city": "Vancouver",
      "address": "510 Burrard St",
      "coordinates": [-123.11735857399765, 49.28613364488442],
      "hours_details": "on strike but picketing at nearest picket line",
      "is_picket_line": false,
      "location_type": "Office"
    },
    {
      "city": "Vancouver",
      "address": "550 Cambie St",
      "coordinates": [-123.11054617399779, 49.28090325703688],
      "hours_details": "on strike but picketing at nearest picket line",
      "is_picket_line": false,
      "location_type": "Office"
    },
    {
      "city": "Vancouver",
      "address": "555 Hastings St W",
      "coordinates": [-123.11159060336105, 49.28503602164022],
      "hours_details": "BC Liquor Store #53, Harbour Centre picketing redirected to 1155 Bute St",
      "is_picket_line": false,
      "location_type": "BC Liquor Store"
    },
    {
      "city": "Vancouver",
      "address": "555 Hastings St W",
      "coordinates": [-123.11195636050431, 49.28482954136862],
      "hours_details": "picketing redirected to nearest picket line, BC Liquor store staff picket at 1155 Bute St",
      "is_picket_line": false,
      "location_type": "Office"
    },
    {
      "city": "Vancouver",
      "address": "5555 Cambie",
      "coordinates": [-123.11657121166797, 49.23491330499586],
      "hours_details": "BC Liquor Store #160 39th and Cambie Monday to Saturday 9am-11pm, Sunday 11am-9pm",
      "is_picket_line": true,
      "location_type": "BC Liquor Store"
    },
    {
      "city": "Vancouver",
      "address": "601 Cordova St W",
      "coordinates": [-123.11225401632649, 49.286066241528786],
      "hours_details": "on strike but picketing at nearest picket line",
      "is_picket_line": false,
      "location_type": "Office"
    },
    {
      "city": "Vancouver",
      "address": "605 Robson",
      "coordinates": [-123.11888057285049, 49.281118648243],
      "hours_details": "on strike but picketing at nearest picket line",
      "is_picket_line": false,
      "location_type": "Office"
    },
    {
      "city": "Vancouver",
      "address": "700 Georgia St W",
      "coordinates": [-123.11889825865545, 49.28289014789449],
      "hours_details": "on strike but picketing at nearest picket line",
      "is_picket_line": false,
      "location_type": "Office"
    },
    {
      "city": "Vancouver",
      "address": "700 Pender St W",
      "coordinates": [-123.11543111703288, 49.28469684017142],
      "hours_details": "Monday to Friday, 7:30am-4:30pm",
      "is_picket_line": true,
      "location_type": "Office"
    },
    {
      "city": "Vancouver",
      "address": "750 Pender St",
      "coordinates": [-123.11583761771395, 49.28506796697407],
      "hours_details": "on strike but picketing at nearest picket line",
      "is_picket_line": false,
      "location_type": "Office"
    },
    {
      "city": "Vancouver",
      "address": "768 Bute Street",
      "coordinates": [-123.12592524184365, 49.28626887509081],
      "hours_details": "BC Liquor Store #129, Alberni Bute Picket line on site",
      "is_picket_line": true,
      "location_type": "BC Liquor Store"
    },
    {
      "city": "Vancouver",
      "address": "815 Hornby",
      "coordinates": [-123.12255181517723, 49.282584048672895],
      "hours_details": "Monday to Friday, 8am-4pm",
      "is_picket_line": true,
      "location_type": "Office"
    },
    {
      "city": "Vancouver",
      "address": "865 Hornby St",
      "coordinates": [-123.12330408634064, 49.28211495343562],
      "hours_details": "Now all members. Picketing redirected to 999 Canada Place.",
      "is_picket_line": false,
      "location_type": "Office"
    },
    {
      "city": "Vancouver",
      "address": "900 Howe Street",
      "coordinates": [-123.12251480168685, 49.28067595945952],
      "hours_details": "Picket line on site",
      "is_picket_line": true,
      "location_type": "Office"
    },
    {
      "city": "Vancouver",
      "address": "999 Canada Pl",
      "coordinates": [-123.11307320283291, 49.28793563098143],
      "hours_details": "on strike but picketing at nearest picket line",
      "is_picket_line": false,
      "location_type": "Office"
    },
    {
      "city": "Vanderhoof",
      "address": "2444 Burrard Ave",
      "coordinates": [-124.00894088991835, 54.01654637951114],
      "hours_details": "BC Cannabis Store, Vanderhoof picketing at 2557 Burrard Street, Vanderhoof",
      "is_picket_line": false,
      "location_type": "BC Cannabis Store"
    },
    {
      "city": "Vernon",
      "address": "245a 4900 27th st",
      "coordinates": [-119.26837880084348, 50.284361390802516],
      "hours_details": "BC Liquor Store #135, Vernon Picket line on site",
      "is_picket_line": true,
      "location_type": "BC Liquor Store"
    },
    {
      "city": "Vernon",
      "address": "300A – 2401 58 Avenue",
      "coordinates": [-119.26169142723853, 50.289453351854384],
      "hours_details": "BC Cannabis Store, SmartCentres Picketing redirected to BC Liquor Store at 4900 27 St #245a, Vernon",
      "is_picket_line": false,
      "location_type": "BC Cannabis Store"
    },
    {
      "city": "Victoria",
      "address": "1001 Douglas Street",
      "coordinates": [-123.36531144888646, 48.423932488222285],
      "hours_details": "Picketing redirected to 940 Blanshard",
      "is_picket_line": false,
      "location_type": "Office"
    },
    {
      "city": "Saanich",
      "address": "1087 McKenzie Ave",
      "coordinates": [-123.36161016456093, 48.469987839556474],
      "hours_details": "BC Liquor Store #242, Saanich Picketing redirected to 370-777 Royal Oak Dr",
      "is_picket_line": false,
      "location_type": "BC Liquor Store"
    },
    {
      "city": "Victoria",
      "address": "1150 McKenzie Ave",
      "coordinates": [-123.36042477102421, 48.471481313270814],
      "hours_details": "Monday to Friday, 7:30am-3:30pm",
      "is_picket_line": true,
      "location_type": "Office"
    },
    {
      "city": "Victoria",
      "address": "1175 Douglas St",
      "coordinates": [-123.36461750281573, 48.42534946357673],
      "hours_details": "picketing redirected to 1515 Blanshard, Victoria",
      "is_picket_line": false,
      "location_type": "Office"
    },
    {
      "city": "Victoria",
      "address": "1195 Esquimalt Rd",
      "coordinates": [-123.41220118601065, 48.42987780883043],
      "hours_details": "Picketing redirected to 645 Tyee",
      "is_picket_line": false,
      "location_type": "Office"
    },
    {
      "city": "Victoria",
      "address": "1215 Broad St",
      "coordinates": [-123.36600419271659, 48.425868369747405],
      "hours_details": "picketing redirected to 910 Government",
      "is_picket_line": false,
      "location_type": "Office"
    },
    {
      "city": "Victoria",
      "address": "1483 Douglas St",
      "coordinates": [-123.36441843264078, 48.42748149135049],
      "hours_details": "picketing redirected to 1515 Blanshard",
      "is_picket_line": false,
      "location_type": "Office"
    },
    {
      "city": "Victoria",
      "address": "1515 Blanshard",
      "coordinates": [-123.36123703914015, 48.42852072604706],
      "hours_details": "Picket line on site",
      "is_picket_line": true,
      "location_type": "Office"
    },
    {
      "city": "Victoria",
      "address": "1520 Blanshard St.",
      "coordinates": [-123.3622662120615, 48.42820176778797],
      "hours_details": "picketing redirected to 1515 Blanshard",
      "is_picket_line": false,
      "location_type": "Office"
    },
    {
      "city": "Victoria",
      "address": "1520 Fairfield Rd",
      "coordinates": [-123.33910286916611, 48.412969458948545],
      "hours_details": "BC Liquor Store #178, Fairfield Picketing redirected to 787 Hillside",
      "is_picket_line": false,
      "location_type": "BC Liquor Store"
    },
    {
      "city": "Victoria",
      "address": "1627 Fort St",
      "coordinates": [-123.33504089856923, 48.42698536859728],
      "hours_details": "Picketing redirected to 1960 Foul Bay Rd LDB",
      "is_picket_line": false,
      "location_type": "Office"
    },
    {
      "city": "Victoria",
      "address": "1675 Douglas St",
      "coordinates": [-123.36397607340034, 48.42914192844547],
      "hours_details": "picketing redirected to 1810 Blanshard",
      "is_picket_line": false,
      "location_type": "Office"
    },
    {
      "city": "Victoria",
      "address": "1802 Douglas",
      "coordinates": [-123.36476442869854, 48.430781339160234],
      "hours_details": "Monday to Friday, 7:30am-5pm",
      "is_picket_line": true,
      "location_type": "Office"
    },
    {
      "city": "Victoria",
      "address": "1810 Blanshard",
      "coordinates": [-123.36218630171766, 48.43089950065392],
      "hours_details": "Monday to Friday, 7:30am-5pm",
      "is_picket_line": true,
      "location_type": "Office"
    },
    {
      "city": "Victoria",
      "address": "1960 Foul Bay Rd",
      "coordinates": [-123.32291109064239, 48.430822856723964],
      "hours_details": "BC Liquor Store #218 Fort Street Monday to Saturday 9am-9pm, Sunday 11am-6pm",
      "is_picket_line": true,
      "location_type": "BC Liquor Store"
    },
    {
      "city": "Victoria",
      "address": "2219 Government",
      "coordinates": [-123.3669240882271, 48.43405196321959],
      "hours_details": "on strike but picketing at 675 Belleville",
      "is_picket_line": false,
      "location_type": "Office"
    },
    {
      "city": "Victoria",
      "address": "225 Menzies St",
      "coordinates": [-123.3734680282882, 48.41582712843044],
      "hours_details": "BC Liquor Store #, James Bay picketing redirected to 787 Hillside",
      "is_picket_line": false,
      "location_type": "BC Liquor Store"
    },
    {
      "city": "Victoria",
      "address": "2261 Keating Cross Road",
      "coordinates": [-123.40743986064953, 48.563553947557075],
      "hours_details": "Picketing redirected to 3350 Douglas",
      "is_picket_line": true,
      "location_type": "Office"
    },
    {
      "city": "Victoria",
      "address": "2814 Nanaimo St",
      "coordinates": [-123.36535255678689, 48.44014838872237],
      "hours_details": "picketing redirected to 787 Hillside",
      "is_picket_line": false,
      "location_type": "Office"
    },
    {
      "city": "Victoria",
      "address": "2940 Jutland Rd",
      "coordinates": [-123.37912862518915, 48.439557050487025],
      "hours_details": "picketing redirected to 2975 Jutland",
      "is_picket_line": false,
      "location_type": "Office"
    },
    {
      "city": "Victoria",
      "address": "2950 Jutland Rd",
      "coordinates": [-123.37932159397609, 48.43971143435181],
      "hours_details": "picket line on site",
      "is_picket_line": true,
      "location_type": "Office"
    },
    {
      "city": "Victoria",
      "address": "2955 Jutland Rd",
      "coordinates": [-123.37844145811303, 48.43935099282489],
      "hours_details": "picketing redirected to 2975 Jutland",
      "is_picket_line": false,
      "location_type": "Office"
    },
    {
      "city": "Victoria",
      "address": "2955 Tillicum Rd",
      "coordinates": [-123.3980165732299, 48.448923911127046],
      "hours_details": "BC Liquor Store #124 Gorge & Tillicum on strike but picketing at 87-1644 Hillside Ave, Victoria",
      "is_picket_line": false,
      "location_type": "BC Liquor Store"
    },
    {
      "city": "Victoria",
      "address": "2957 Jutland Rd",
      "coordinates": [-123.37858690305956, 48.43955159736076],
      "hours_details": "picketing redirected to 2975 Jutland",
      "is_picket_line": false,
      "location_type": "Office"
    },
    {
      "city": "Victoria",
      "address": "2975 Jutland",
      "coordinates": [-123.37799405939026, 48.440491351144786],
      "hours_details": "Monday to Friday, 7:30am-5:30pm",
      "is_picket_line": true,
      "location_type": "Office"
    },
    {
      "city": "Victoria",
      "address": "2995 Jutland Rd",
      "coordinates": [-123.37739465939028, 48.44120519323666],
      "hours_details": "picketing redirected to 2975 Jutland",
      "is_picket_line": false,
      "location_type": "Office"
    },
    {
      "city": "Victoria",
      "address": "320 Garbally Rd",
      "coordinates": [-123.3774220728808, 48.43950987098259],
      "hours_details": "picketing redirected to 2975 Jutland",
      "is_picket_line": false,
      "location_type": "Office"
    },
    {
      "city": "Victoria",
      "address": "3350 Douglas",
      "coordinates": [-123.37495023240905, 48.4505259574279],
      "hours_details": "Monday to Friday, 7:30am-5pm",
      "is_picket_line": true,
      "location_type": "Office"
    },
    {
      "city": "Victoria",
      "address": "3400 Davidson Ave",
      "coordinates": [-123.37961625938988, 48.45320033167533],
      "hours_details": "Monday to Friday, 7:30am-5pm",
      "is_picket_line": true,
      "location_type": "Office"
    },
    {
      "city": "Victoria",
      "address": "343B Bay St",
      "coordinates": [-123.37464768993426, 48.43490025316323],
      "hours_details": "Picketing redirected to 2975 Jutland",
      "is_picket_line": false,
      "location_type": "Office"
    },
    {
      "city": "Victoria",
      "address": "345 Wale Rd",
      "coordinates": [-123.47194003742695, 48.44481594025595],
      "hours_details": "Picketing redirected to 1311 Lakepoint Way",
      "is_picket_line": false,
      "location_type": "Office"
    },
    {
      "city": "Victoria",
      "address": "3611 Shelbourne St",
      "coordinates": [-123.33267010250367, 48.45959383099192],
      "hours_details": "BC Liquor Store #140 Cedar Hill on strike but picketing at 370-777 Royal Oak Dr",
      "is_picket_line": false,
      "location_type": "BC Liquor Store"
    },
    {
      "city": "Victoria",
      "address": "370-777 Royal Oak Dr",
      "coordinates": [-123.38278824511913, 48.49815794670482],
      "hours_details": "BC Liquor Store #181 Broadmead Village Monday to Saturday 9am-9pm, Sunday 11am-6pm",
      "is_picket_line": true,
      "location_type": "BC Liquor Store"
    },
    {
      "city": "Victoria",
      "address": "395 Waterfront Cres",
      "coordinates": [-123.37753405707018, 48.44178351446606],
      "hours_details": "Picketing redirected to 2975 Jutland",
      "is_picket_line": false,
      "location_type": "Office"
    },
    {
      "city": "Victoria",
      "address": "3960 Quadra St",
      "coordinates": [-123.36399749746387, 48.468164735657005],
      "hours_details": "picketing redirected to 1150 Mckenzie",
      "is_picket_line": false,
      "location_type": "Office"
    },
    {
      "city": "Victoria",
      "address": "3965 Quadra St",
      "coordinates": [-123.363033682296, 48.46879322256511],
      "hours_details": "Picketing redirected to 4000 Seymour",
      "is_picket_line": false,
      "location_type": "Office"
    },
    {
      "city": "Victoria",
      "address": "4000 Seymour",
      "coordinates": [-123.3699732593898, 48.45276341832912],
      "hours_details": "Monday to Friday, 7:30am-5pm",
      "is_picket_line": true,
      "location_type": "Office"
    },
    {
      "city": "Victoria",
      "address": "4216 Wilkinson Rd",
      "coordinates": [-123.4103020719652, 48.48269672275119],
      "hours_details": "",
      "is_picket_line": true,
      "location_type": "Office"
    },
    {
      "city": "Victoria",
      "address": "431 Menzies St",
      "coordinates": [-123.371522628699, 48.41925003145098],
      "hours_details": "picketing redirected to 4000 Seymour",
      "is_picket_line": false,
      "location_type": "Office"
    },
    {
      "city": "Victoria",
      "address": "4460 Chatterton Way",
      "coordinates": [-123.38455529763989, 48.490687707672734],
      "hours_details": "Picketing redirected to Broadmead LDB - 777 Royal Oak Dr #370",
      "is_picket_line": false,
      "location_type": "Office"
    },
    {
      "city": "Victoria",
      "address": "4464 Markham Street",
      "coordinates": [-123.41220831520579, 48.493314932680065],
      "hours_details": "Picketing redirected to existing Picket lines",
      "is_picket_line": false,
      "location_type": "Office"
    },
    {
      "city": "Victoria",
      "address": "4478 Saanich Rd W",
      "coordinates": [-123.388125872879, 48.493109263518335],
      "hours_details": "Picketing redirected to Broadmead LDB - 777 Royal Oak Dr #371",
      "is_picket_line": false,
      "location_type": "Office"
    },
    {
      "city": "Victoria",
      "address": "506 Government St",
      "coordinates": [-123.3691926863722, 48.41772298186649],
      "hours_details": "Picketing redirected to 525/545 Superior",
      "is_picket_line": false,
      "location_type": "Office"
    },
    {
      "city": "Victoria",
      "address": "525 Superior",
      "coordinates": [-123.37122905448865, 48.41798294818426],
      "hours_details": "Monday to Friday, 7:30am-5pm",
      "is_picket_line": true,
      "location_type": "Office"
    },
    {
      "city": "Victoria",
      "address": "545 Superior St",
      "coordinates": [-123.37030571272568, 48.418028786805294],
      "hours_details": "Monday to Friday, 7:30am-5pm",
      "is_picket_line": true,
      "location_type": "Office"
    },
    {
      "city": "Victoria",
      "address": "609 Broughton St",
      "coordinates": [-123.36762349478043, 48.42410500351018],
      "hours_details": "Picketing redirected to 835 Humboldt",
      "is_picket_line": false,
      "location_type": "Office"
    },
    {
      "city": "Victoria",
      "address": "614 Humboldt St",
      "coordinates": [-123.36791161520833, 48.423091249962255],
      "hours_details": "Picketing redirected to Royal BC Museum",
      "is_picket_line": false,
      "location_type": "Office"
    },
    {
      "city": "Victoria",
      "address": "617 Government",
      "coordinates": [-123.36824382379629, 48.419182380868975],
      "hours_details": "Monday to Friday, 7:30am-5pm",
      "is_picket_line": true,
      "location_type": "Office"
    },
    {
      "city": "Victoria",
      "address": "620 Superior St",
      "coordinates": [-123.36738842869902, 48.418819822949956],
      "hours_details": "picketing redirected to 617 Government",
      "is_picket_line": false,
      "location_type": "Office"
    },
    {
      "city": "Victoria",
      "address": "645 Tyee",
      "coordinates": [-123.37952153240967, 48.433066498721054],
      "hours_details": "M to F, 7:30am to 5pm",
      "is_picket_line": true,
      "location_type": "Office"
    },
    {
      "city": "Victoria",
      "address": "675 Belleville (Royal BC Museum)",
      "coordinates": [-123.36741751520846, 48.41989651577428],
      "hours_details": "Monday to Friday, 7am-6pm and Saturday to Sunday, 9am-6pm",
      "is_picket_line": true,
      "location_type": "Office"
    },
    {
      "city": "Victoria",
      "address": "716 Courtney",
      "coordinates": [-123.36490253055446, 48.42328226980757],
      "hours_details": "Monday to Friday, 7:30am-5pm",
      "is_picket_line": true,
      "location_type": "Office"
    },
    {
      "city": "Victoria",
      "address": "727 Fisgard",
      "coordinates": [-123.3629474152083, 48.42926686188962],
      "hours_details": "Monday to Friday, 7:30am-5pm",
      "is_picket_line": true,
      "location_type": "Office"
    },
    {
      "city": "Victoria",
      "address": "742 Vanalman Ave",
      "coordinates": [-123.39115185613812, 48.48231750895781],
      "hours_details": "Picketing redirected to 4000 Seymour",
      "is_picket_line": false,
      "location_type": "Office"
    },
    {
      "city": "Victoria",
      "address": "747 Fort St",
      "coordinates": [-123.36412987473712, 48.42435250590104],
      "hours_details": "picketing redirected to 940 Blanshard",
      "is_picket_line": false,
      "location_type": "Office"
    },
    {
      "city": "Victoria",
      "address": "771 Vernon Ave",
      "coordinates": [-123.37798798731237, 48.459147774208176],
      "hours_details": "Picketing redirected to 4000 Seymour",
      "is_picket_line": false,
      "location_type": "Service BC"
    },
    {
      "city": "Victoria",
      "address": "7851 Saanich Rd E",
      "coordinates": [-123.41646812981062, 48.5952985412778],
      "hours_details": "Picketing redirected to Sidney Liquor Store - 2335 Beacon Ave",
      "is_picket_line": false,
      "location_type": "Office"
    },
    {
      "city": "Victoria",
      "address": "800 Johnson",
      "coordinates": [-123.36120887288136, 48.42717520035865],
      "hours_details": "on strike but picketing at 675 Belleville",
      "is_picket_line": false,
      "location_type": "Office"
    },
    {
      "city": "Victoria",
      "address": "818 Fort St",
      "coordinates": [-123.36161641706389, 48.42450564749953],
      "hours_details": "on strike but picketing at 1515 Blanshard",
      "is_picket_line": false,
      "location_type": "Office"
    },
    {
      "city": "Victoria",
      "address": "835 Humboldt",
      "coordinates": [-123.36293651706411, 48.41990090118753],
      "hours_details": "Picket line on site",
      "is_picket_line": true,
      "location_type": "Office"
    },
    {
      "city": "Victoria",
      "address": "836 Courtney St",
      "coordinates": [-123.36178928915169, 48.4227297876984],
      "hours_details": "Picketing redirected to 835 Humboldt",
      "is_picket_line": false,
      "location_type": "Office"
    },
    {
      "city": "Victoria",
      "address": "836 Yates",
      "coordinates": [-123.36048000171787, 48.42625298305981],
      "hours_details": "on strike but picketing at 617 Government",
      "is_picket_line": false,
      "location_type": "Office"
    },
    {
      "city": "Victoria",
      "address": "87-1644 Hillside Ave",
      "coordinates": [-123.33474885019046, 48.44643348071159],
      "hours_details": "BC Liquor Store #82 Hillside Monday to Saturday 9am-9pm, Sunday 11am-6pm",
      "is_picket_line": true,
      "location_type": "BC Liquor Store"
    },
    {
      "city": "Victoria",
      "address": "908 Pandora Ave",
      "coordinates": [-123.35850613055437, 48.42785809873248],
      "hours_details": "Picketing redirected to 835 Humboldt",
      "is_picket_line": false,
      "location_type": "Office"
    },
    {
      "city": "Victoria",
      "address": "910 Government",
      "coordinates": [-123.36832697840376, 48.42392842058325],
      "hours_details": "M to F, 7:30am to 5pm",
      "is_picket_line": true,
      "location_type": "Office"
    },
    {
      "city": "Victoria",
      "address": "94 Talcott Rd",
      "coordinates": [-123.44301137028067, 48.46313758221555],
      "hours_details": "Picketing redirected to 1311 Lakepoint Way",
      "is_picket_line": false,
      "location_type": "Office"
    },
    {
      "city": "Victoria",
      "address": "940 Blanshard",
      "coordinates": [-123.36319437473696, 48.42345648932714],
      "hours_details": "Monday to Friday, 7:30am-5pm",
      "is_picket_line": true,
      "location_type": "Office"
    },
    {
      "city": "Victoria",
      "address": "976 Meares",
      "coordinates": [-123.35758355753552, 48.42354860899462],
      "hours_details": "on strike but picketing at 4000 Seymour",
      "is_picket_line": false,
      "location_type": "Office"
    },
    {
      "city": "West Vancouver",
      "address": "1434 Marine Dr",
      "coordinates": [-123.15531381790025, 49.32791981359385],
      "hours_details": "BC Liquor Store #72 Ambleside on strike but picketing at 5335 Headland Dr, West Vancouver",
      "is_picket_line": false,
      "location_type": "BC Liquor Store"
    },
    {
      "city": "West Vancouver",
      "address": "195-5335 Headland Dr",
      "coordinates": [-123.2546190573819, 49.35083511361298],
      "hours_details": "BC Liquor Store #175 Caulfield Monday to Saturday 9am-9pm, Sunday 11am-6pm",
      "is_picket_line": true,
      "location_type": "BC Liquor Store"
    },
    {
      "city": "West Vancouver",
      "address": "785 Park Royal N",
      "coordinates": [-123.13768667704828, 49.32765212177735],
      "hours_details": "BC Liquor Store #228 Park Royal Monday to Saturday 9am-9pm, Sunday 11am-6pm",
      "is_picket_line": true,
      "location_type": "BC Liquor Store"
    },
    {
      "city": "Westminster",
      "address": "800 McBride Blvd",
      "coordinates": [-122.91451347012946, 49.22281877259774],
      "hours_details": "BC Liquor Store #97 Royal Square on strike but picketing at 7155 Kingsway, Burnaby",
      "is_picket_line": false,
      "location_type": "BC Liquor Store"
    },
    {
      "city": "Whistler",
      "address": "101-4360 Lorimer Rd",
      "coordinates": [-122.95606330026813, 50.11995931864395],
      "hours_details": "BC Liquor Store #179 Whistler Market Place Monday to Saturday 9am-9pm, Sunday 11am-6pm",
      "is_picket_line": true,
      "location_type": "BC Liquor Store"
    },
    {
      "city": "Whistler",
      "address": "2071 Lake Placid Rd",
      "coordinates": [-122.99161515420366, 50.09581809645586],
      "hours_details": "BC Liquor Store #195 Whistler Creekside on strike but picketing at 4360 Lorimer Rd, Whistler",
      "is_picket_line": false,
      "location_type": "BC Liquor Store"
    },
    {
      "city": "Whistler",
      "address": "4211 Village Square",
      "coordinates": [-122.95651171766589, 50.11488211110375],
      "hours_details": "BC Liquor Store #302 Whistler on strike but picketing at 4360 Lorimer Rd, Whistler",
      "is_picket_line": false,
      "location_type": "BC Liquor Store"
    },
    {
      "city": "Williams Lake",
      "address": "130 – 850 Oliver Street",
      "coordinates": [-122.13102428499995, 52.12910076000081],
      "hours_details": "BC Cannabis Store, Boitanio Mall",
      "is_picket_line": true,
      "location_type": "BC Cannabis Store"
    },
    {
      "city": "Williams Lake",
      "address": "280 3 Ave N",
      "coordinates": [-122.14275167200667, 52.13311819272493],
      "hours_details": "on strike but picketing at 640 Borland Street, Williams Lake",
      "is_picket_line": false,
      "location_type": "Office"
    },
    {
      "city": "Williams Lake",
      "address": "640 Borland Street",
      "coordinates": [-122.13693381321556, 52.130696997489395],
      "hours_details": "Monday to Friday, 7:30am-5pm",
      "is_picket_line": true,
      "location_type": "Front Desk BC"
    },
    {
      "city": "Williams Lake",
      "address": "730b Oliver St.",
      "coordinates": [-122.13353132848194, 52.129130070471966],
      "hours_details": "BC Liquor Store #63, Williams Lake 10 am to 2 pm, 2 pm to 6 pm",
      "is_picket_line": true,
      "location_type": "BC Liquor Store"
    },
    {
      "city": "Pender Island",
      "address": "6-4605 Bedwell Harbour Rd",
      "coordinates": [-123.28153350576143, 48.7796090602665],
      "hours_details": "BC Liquor Store #155, Pender Island Picket line on site",
      "is_picket_line": true,
      "location_type": "BC Liquor Store"
    },
    {
      "city": "Salt Spring Island",
      "address": "1107 115 Fulford Ganges Rd",
      "coordinates": [-123.49807739922188, 48.85298890978858],
      "hours_details": "BC Liquor Store #204, Ganges Mon-Sat 9-7, Sun 11-5",
      "is_picket_line": true,
      "location_type": "BC Liquor Store"
    },
    {
      "city": "Lake Cowichan",
      "address": "93 Darnell Rd",
      "coordinates": [-124.05139701634491, 48.82765258404476],
      "hours_details": "BC Liquor Store #67, Lake Cowichan Monday to Saturday, 9am to 7pm; Sunday 11am to 5pm",
      "is_picket_line": true,
      "location_type": "BC Liquor Store"
    },
    {
      "city": "Victoria",
      "address": "787 Hillside Ave",
      "coordinates": [-123.36464633529823, 48.4384904261814],
      "hours_details": "BC Liquor Store #, Blanshard Square picket line on site",
      "is_picket_line": true,
      "location_type": "BC Liquor Store"
    },
    {
      "city": "Langford",
      "address": "1311 Lakepoint Way",
      "coordinates": [-123.53386889674466, 48.44543910088055],
      "hours_details": "picket line on site",
      "is_picket_line": true,
      "location_type": "Office"
    },
    {
      "city": "Revelstoke",
      "address": "555 Victoria",
      "coordinates": [-118.19943451931205, 51.001871473553656],
      "hours_details": "picketing redirected to 111 Campbell, Revelstoke",
      "is_picket_line": false,
      "location_type": "Office"
    },
    {
      "city": "Fernie",
      "address": "792 2nd Ave",
      "coordinates": [-115.05897764428597, 49.50463163554186],
      "hours_details": "BC Liquor Store #13, Fernie Picket line on site",
      "is_picket_line": true,
      "location_type": "BC Liquor Store"
    },
    {
      "city": "Hope",
      "address": "770 5th Street",
      "coordinates": [-121.43885700806058, 49.38126951202446],
      "hours_details": "BC Liquor Store #71, Hope picket line on site",
      "is_picket_line": true,
      "location_type": "BC Liquor Store"
    },
    {
      "city": "Parksville",
      "address": "319b E Island Hwy",
      "coordinates": [-124.30277783890018, 49.31966239300417],
      "hours_details": "BC Liquor Store #42, Parksville picketing at 810 West island Hwy, Parksville",
      "is_picket_line": false,
      "location_type": "BC Liquor Store"
    },
    {
      "city": "Port Alberni",
      "address": "3764 10th Ave",
      "coordinates": [-124.7987078774845, 49.244860047986194],
      "hours_details": "BC Liquor Store #40, Port Alberni picket line on site",
      "is_picket_line": true,
      "location_type": "BC Liquor Store"
    },
    {
      "city": "Port Moody",
      "address": "101 -130 Brew Street",
      "coordinates": [-122.82812204251138, 49.28035018544222],
      "hours_details": "BC Liquor Store #205, Port Moody Picketing redirected to redirect to 1960 Como Lake Avenue",
      "is_picket_line": false,
      "location_type": "BC Liquor Store"
    },
    {
      "city": "Qualicum",
      "address": "706 Primrose Street",
      "coordinates": [-124.44420997740434, 49.34680264108345],
      "hours_details": "BC Liquor Store #34, Qualicum picketing at 810 West island Hwy, Parksville",
      "is_picket_line": false,
      "location_type": "BC Liquor Store"
    },
    {
      "city": "Sparwood",
      "address": "117 Red Cedar Dr",
      "coordinates": [-114.88639371838812, 49.733321936434955],
      "hours_details": "BC Liquor Store #28, Sparwood (recall) M-F: 10am to 2pm",
      "is_picket_line": true,
      "location_type": "BC Liquor Store"
    },
    {
      "city": "Terrace",
      "address": "3240 Eby Street",
      "coordinates": [-128.5986336456906, 54.51845355665077],
      "hours_details": "BC Liquor Store #52, Terrace Mon-Fri 9am-1pm and 1pm-5pm (Cannabis should join this line)",
      "is_picket_line": true,
      "location_type": "BC Liquor Store"
    },
    {
      "city": "Trail",
      "address": "1629 2nd Ave",
      "coordinates": [-117.7004388758409, 49.09743974298844],
      "hours_details": "BC Liquor Store #51, Trail picket line on site",
      "is_picket_line": true,
      "location_type": "BC Liquor Store"
    },
    {
      "city": "Vanderhoof",
      "address": "2557 Burrard Street",
      "coordinates": [-124.00938883796252, 54.017554121518835],
      "hours_details": "BC Liquor Store #81, Vanderhoof picket line on site",
      "is_picket_line": true,
      "location_type": "BC Liquor Store"
    },
    {
      "city": "Winfield",
      "address": "30-10051 Hwy 97 N",
      "coordinates": [-119.40391683227456, 50.028024695297056],
      "hours_details": "BC Liquor Store #166, WinfieldPicket line on site",
      "is_picket_line": true,
      "location_type": "BC Liquor Store"
    },
    {
      "city": "Mission",
      "address": "31956 Lougheed Hwy",
      "coordinates": [-122.33896603273527, 49.13237751689124],
      "hours_details": "BC Cannabis Store, Mission 9am-7pm",
      "is_picket_line": true,
      "location_type": "BC Cannabis Store"
    },
    {
      "city": "New Westminster",
      "address": "805 Boyd St",
      "coordinates": [-122.94863914890868, 49.19198350720603],
      "hours_details": "BC Cannabis Store, Queensborough SmartCentres Picketing redirected to 1075 Columbia St Liquor Store",
      "is_picket_line": false,
      "location_type": "BC Cannabis Store"
    },
    {
      "city": "North Vancouver",
      "address": "1461 Marine Dr",
      "coordinates": [-123.1142903893798, 49.32346797113951],
      "hours_details": "BC Cannabis Store, Norgate Picketing redirected to 2601 Westview Dr Liquor Store",
      "is_picket_line": false,
      "location_type": "BC Cannabis Store"
    },
    {
      "city": "North Vancouver",
      "address": "888 Brooksbank Ave",
      "coordinates": [-123.04114124818781, 49.31007106097483],
      "hours_details": "BC Cannabis Store, Park and Tilford Picketing redirected to 2601 Westview Dr Liquor Store",
      "is_picket_line": false,
      "location_type": "BC Cannabis Store"
    },
    {
      "city": "Port Coquitlam",
      "address": "1971 Lougheed Hwy",
      "coordinates": [-122.76966889708004, 49.265456169949864],
      "hours_details": "BC Cannabis Store, Cannabis 7046 Oxford Crossing Picketing redirected to Nicola Liquor Store - 140, 1097 Nicola Ave, POCO",
      "is_picket_line": false,
      "location_type": "BC Cannabis Store"
    },
    {
      "city": "Powell River",
      "address": "7035 Barnet St",
      "coordinates": [-124.51864836546689, 49.842625036323845],
      "hours_details": "BC Cannabis Store, Town Centre picket line on site",
      "is_picket_line": true,
      "location_type": "BC Cannabis Store"
    },
    {
      "city": "Prince George",
      "address": "3111 Massey Drive",
      "coordinates": [-122.77803806844499, 53.898265283006616],
      "hours_details": "BC Cannabis Store, Cannabis Store picketing redirected to BCL 3173 Massey Drive, PG",
      "is_picket_line": false,
      "location_type": "BC Cannabis Store"
    },
    {
      "city": "Prince George",
      "address": "6111 Southridge Avenue",
      "coordinates": [-122.78760609055959, 53.86525472041475],
      "hours_details": "BC Cannabis Store, Cannabis Store picketing redirected to BCL 3173 Massey Drive, PG",
      "is_picket_line": false,
      "location_type": "BC Cannabis Store"
    },
    {
      "city": "Prince George",
      "address": "737 Central Street W",
      "coordinates": [-122.78370724670147, 53.91911333153319],
      "hours_details": "BC Cannabis Store, Cannabis Store picketing redirected to BCL 3173 Massey Drive, PG",
      "is_picket_line": false,
      "location_type": "BC Cannabis Store"
    },
    {
      "city": "Ashcroft",
      "address": "318 Railway Avenue",
      "coordinates": [-121.27945180507541, 50.7233775281526],
      "hours_details": "redirected to BCL @1360 BC-97 hwy",
      "is_picket_line": false,
      "location_type": "Service BC"
    },
    {
      "city": "Salmon Arm",
      "address": "16 St NE",
      "coordinates": [-119.26576974213506, 50.707580781878505],
      "hours_details": "picketing redirected to 500 - 360 Trans Canada Hwy",
      "is_picket_line": false,
      "location_type": "Service BC"
    },
    {
      "city": "Duncan",
      "address": "5785 Duncan St",
      "coordinates": [-123.70667074403208, 48.78100626117328],
      "hours_details": "",
      "is_picket_line": false,
      "location_type": "Service BC"
    },
    {
      "city": "Ganges",
      "address": "343 Lower Ganges Rd",
      "coordinates": [-123.50891678821154, 48.86023997316207],
      "hours_details": "",
      "is_picket_line": false,
      "location_type": "Service BC"
    },
    {
      "city": "Burnaby",
      "address": "400 - 5021 Kingsway",
      "coordinates": [-122.99193713666453, 49.226434407140914],
      "hours_details": "picketing redirected to Brentwood Cannabis - 4615 Lougheed Highway",
      "is_picket_line": false,
      "location_type": "Service BC"
    },
    {
      "city": "Chilliwack",
      "address": "45467 Yale Rd W",
      "coordinates": [-121.96532464401886, 49.148447782051846],
      "hours_details": "picketing redirected to nearest line",
      "is_picket_line": false,
      "location_type": "Service BC"
    },
    {
      "city": "Maple Ridge",
      "address": "22470 Dewdney Trunk Rd",
      "coordinates": [-122.59991571703516, 49.2198899011111],
      "hours_details": "picketing redirected to nearest line",
      "is_picket_line": false,
      "location_type": "Service BC"
    },
    {
      "city": "Sechelt",
      "address": "5498 Wharf Avenue",
      "coordinates": [-123.75384357284352, 49.471962136047026],
      "hours_details": "picketing redirected to 601 5500 Sunshine Coast Hwy, Sechelt",
      "is_picket_line": false,
      "location_type": "Service BC"
    },
    {
      "city": "Squamish",
      "address": "1360 Pemberton Ave",
      "coordinates": [-123.15223701516187, 49.70160683582423],
      "hours_details": "picketing redirected to 40204 Glenalder Place, Squamish",
      "is_picket_line": false,
      "location_type": "Service BC"
    },
    {
      "city": "100 Mile House",
      "address": "300 Highway 97 South",
      "coordinates": [-121.29777555927213, 51.64464132124053],
      "hours_details": "Picketing redirected to 95a Cariboo Highway 97",
      "is_picket_line": false,
      "location_type": "Front Desk BC"
    },
    {
      "city": "Atlin",
      "address": "170-3rd Street",
      "coordinates": [-133.70240170128454, 59.575295233863145],
      "hours_details": "",
      "is_picket_line": false,
      "location_type": "Service BC"
    },
    {
      "city": "Bella Coola",
      "address": "636 Cliff Street",
      "coordinates": [-126.75455946459503, 52.37231805192157],
      "hours_details": "picketing redirected to 624 Cliff St",
      "is_picket_line": false,
      "location_type": "Service BC"
    },
    {
      "city": "Burns Lake",
      "address": "161 Hwy 16",
      "coordinates": [-125.75567530150009, 54.22504379857777],
      "hours_details": "",
      "is_picket_line": false,
      "location_type": "Service BC"
    },
    {
      "city": "Campbell River",
      "address": "1180 Ironwood Street",
      "coordinates": [-125.25549966943778, 50.02685681858022],
      "hours_details": "picketing redirected to 270 1400 Dogwood St",
      "is_picket_line": false,
      "location_type": "Service BC"
    },
    {
      "city": "Chetwynd",
      "address": "4744 52nd Street",
      "coordinates": [-121.63344986999664, 55.69805586148338],
      "hours_details": "picketing redirected to 5033 49th Ave NW",
      "is_picket_line": false,
      "location_type": "Service BC"
    },
    {
      "city": "Clinton",
      "address": "1423 Cariboo Highway",
      "coordinates": [-121.58655773515326, 51.09167862377507],
      "hours_details": "picketing redirected to 1427 Cariboo Hwy",
      "is_picket_line": false,
      "location_type": "Service BC"
    },
    {
      "city": "Clinton",
      "address": "1427 Cariboo Highway",
      "coordinates": [-121.58624967230122, 51.09198966650432],
      "hours_details": "BC Liquor Store #201, Clinton Picket line on site",
      "is_picket_line": true,
      "location_type": "Office"
    },
    {
      "city": "Courtenay",
      "address": "2500 Cliffe Avenue",
      "coordinates": [-124.98237166878097, 49.67635207060494],
      "hours_details": "picketing redirected to 1095 Cliffe Ave",
      "is_picket_line": false,
      "location_type": "Service BC"
    },
    {
      "city": "Creston",
      "address": "1404 Canyon Street",
      "coordinates": [-116.50935057400677, 49.09578109910276],
      "hours_details": "Join virtual picket line (alternate duties) until further notice",
      "is_picket_line": false,
      "location_type": "Service BC"
    },
    {
      "city": "Daajing Giids",
      "address": "115 Oceanview Drive",
      "coordinates": [-132.0781125087404, 53.2552759173331],
      "hours_details": "BC Liquor Store #211, Daajing Giids Picket line on site",
      "is_picket_line": true,
      "location_type": "BC Liquor Store"
    },
    {
      "city": "Daajing Giids",
      "address": "216 Oceanview Dr",
      "coordinates": [-132.0815629713143, 53.28334499927149],
      "hours_details": "picketing redirected to 115 Oceanview Drive, Daajing Giids",
      "is_picket_line": false,
      "location_type": "Service BC"
    },
    {
      "city": "Dease Lake",
      "address": "Block D - Hwy 37",
      "coordinates": [-129.98619050506395, 58.43661657002817],
      "hours_details": "picketing redirected to 792 2nd Ave",
      "is_picket_line": false,
      "location_type": "Service BC"
    },
    {
      "city": "Fernie",
      "address": "401 - 4th Ave",
      "coordinates": [-115.06364591644338, 49.502966264069755],
      "hours_details": "Picketing redirected to 792 2nd Ave, Fernie",
      "is_picket_line": false,
      "location_type": "Service BC"
    },
    {
      "city": "Fort St. James",
      "address": "161 Stuart Dr W",
      "coordinates": [-124.25276136704774, 54.44287197055883],
      "hours_details": "BC Liquor Store #, Fort St James Picket line on site",
      "is_picket_line": true,
      "location_type": "Office"
    },
    {
      "city": "Fort St. James",
      "address": "470 Stuart Dr W",
      "coordinates": [-124.2583781262699, 54.445171431286354],
      "hours_details": "picketing redirected to 161 Stuart Dr W",
      "is_picket_line": false,
      "location_type": "Service BC"
    },
    {
      "city": "Fort St. John",
      "address": "10600 - 100th St",
      "coordinates": [-120.84822063660079, 56.25250089443577],
      "hours_details": "picketing redirected to 10215 100th Street",
      "is_picket_line": false,
      "location_type": "Service BC"
    },
    {
      "city": "Golden",
      "address": "1104 9 St. S",
      "coordinates": [-116.960160824713, 51.29607677046624],
      "hours_details": "Picketing virtually until further notice",
      "is_picket_line": false,
      "location_type": "Service BC"
    },
    {
      "city": "Grand Forks",
      "address": "7290 2nd St.",
      "coordinates": [-118.4367490015462, 49.03264351676415],
      "hours_details": "picketing redirected to 451 Central Ave, Grand Forks",
      "is_picket_line": false,
      "location_type": "Service BC"
    },
    {
      "city": "Grand Forks",
      "address": "451 Central Ave",
      "coordinates": [-118.44122416369105, 49.0336413740586],
      "hours_details": "451 Central Ave BC Liquor Store #, Grand Forks Picket line on site",
      "is_picket_line": true,
      "location_type": "BC Liquor Store"
    },
    {
      "city": "Hazelton",
      "address": "2210 Hwy 62",
      "coordinates": [-127.6593572546335, 55.257392321825485],
      "hours_details": "",
      "is_picket_line": false,
      "location_type": "Service BC"
    },
    {
      "city": "Houston",
      "address": "3400 - 11th St",
      "coordinates": [-126.64685778227854, 54.39868854970311],
      "hours_details": "",
      "is_picket_line": false,
      "location_type": "Service BC"
    },
    {
      "city": "Invermere",
      "address": "625 - 4th St",
      "coordinates": [-116.02858542575646, 50.50942557621191],
      "hours_details": "Picketing virtually until further notice",
      "is_picket_line": false,
      "location_type": "Service BC"
    },
    {
      "city": "Kamloops",
      "address": "455 Columbia St",
      "coordinates": [-120.33038116198142, 50.67036524056631],
      "hours_details": "redirected to 447 Columbia",
      "is_picket_line": false,
      "location_type": "Service BC"
    },
    {
      "city": "Kaslo",
      "address": "410 Front Street",
      "coordinates": [-116.90438747306148, 49.91211590508405],
      "hours_details": "BC Liquor Store #18, Kaslo Picket line on site",
      "is_picket_line": true,
      "location_type": "BC Liquor Store"
    },
    {
      "city": "Kaslo",
      "address": "413 4th St",
      "coordinates": [-116.90479060509486, 49.910689570927275],
      "hours_details": "picketing redirected to 410 Front St",
      "is_picket_line": false,
      "location_type": "Service BC"
    },
    {
      "city": "Kitimat",
      "address": "795 S Lahakas Blvd",
      "coordinates": [-128.65599127165908, 54.05198179406641],
      "hours_details": "",
      "is_picket_line": false,
      "location_type": "Service BC"
    },
    {
      "city": "Lillooet",
      "address": "155 Main Street",
      "coordinates": [-121.92597203286414, 50.703051410206925],
      "hours_details": "BC Liquor Store #, Lillooet Picket line on site",
      "is_picket_line": true,
      "location_type": "BC Liquor Store"
    },
    {
      "city": "Lillooet",
      "address": "639 Main St",
      "coordinates": [-121.93477215112635, 50.6932333487763],
      "hours_details": "redirected to BCL @155 Main st",
      "is_picket_line": false,
      "location_type": "Service BC"
    },
    {
      "city": "Mackenzie",
      "address": "64 Centennial Dr",
      "coordinates": [-123.09620298900161, 55.3384857465714],
      "hours_details": "picketing redirected to 403 Mackenzie Blvd",
      "is_picket_line": false,
      "location_type": "Service BC"
    },
    {
      "city": "Mackenzie",
      "address": "403 Mackenzie Blvd",
      "coordinates": [-123.09247547345593, 55.339123833368006],
      "hours_details": "BC Liquor Store #, Mackenzie Picket line on site",
      "is_picket_line": true,
      "location_type": "BC Liquor Store"
    },
    {
      "city": "Masset",
      "address": "1666 Orr St",
      "coordinates": [-132.14690521202732, 54.012847407441555],
      "hours_details": "",
      "is_picket_line": false,
      "location_type": "Service BC"
    },
    {
      "city": "Merritt",
      "address": "2194 Coutlee Ave",
      "coordinates": [-120.78532814089104, 50.10831204373739],
      "hours_details": "redirected to BCL @1700 Garcia St",
      "is_picket_line": false,
      "location_type": "Service BC"
    },
    {
      "city": "Merritt",
      "address": "104 1700 Garcia Street",
      "coordinates": [-120.7864884758796, 50.108209494051465],
      "hours_details": "BC Liquor Store #, Merritt Picket line on site",
      "is_picket_line": true,
      "location_type": "BC Liquor Store"
    },
    {
      "city": "Nakusp",
      "address": "204 - 6th Ave NW",
      "coordinates": [-117.8051717970903, 50.2415813460647],
      "hours_details": "Picketing redirected to 87 5th Ave W",
      "is_picket_line": false,
      "location_type": "Service BC"
    },
    {
      "city": "Naniamo",
      "address": "460 Selby St",
      "coordinates": [-123.93960644368983, 49.16218670544093],
      "hours_details": "Picketing redirected to 650 S Terminal Ave",
      "is_picket_line": false,
      "location_type": "Service BC"
    },
    {
      "city": "Nelson",
      "address": "310 Ward St",
      "coordinates": [-117.29579679924062, 49.493215592716815],
      "hours_details": "Picketing redirected to 209 Anderson St",
      "is_picket_line": false,
      "location_type": "Service BC"
    },